[{"ID":4,"Name":"Happy Swing","Photo":"68350f83-f3d1-49e1-bdfc-739647cea2df","global_id":1058514543,"AdmArea":"Восточный административный округ","District":"район Сокольники","Location":"ПАРК КУЛЬТУРЫ И ОТДЫХА «СОКОЛЬНИКИ»","RegistrationNumber":"77-0234","State":"аттракцион зарегистрирован","LocationType":"парк","geoData":{"coordinates":[37.6723061613936,55.7941614687406],"type":"Point"},"geodata_center":{"type":"geometry","value":"0101000000D50AD8200ED64240F6FD3F15A7E54B40"}},{"ID":5,"Name":"Rio Grande","Photo":"685cb7e2-ee13-4666-914c-d539c9194de6","global_id":1058514546,"AdmArea":"Восточный административный округ","District":"район Сокольники","Location":"ПАРК КУЛЬТУРЫ И ОТДЫХА «СОКОЛЬНИКИ»","RegistrationNumber":"77-0237","State":"аттракцион зарегистрирован","LocationType":"парк","geoData":{"coordinates":[37.6720956493635,55.7942214049919],"type":"Point"},"geodata_center":{"type":"geometry","value":"010100000069E6F03A07D64240951C080CA9E54B40"}},{"ID":6,"Name":"АВТОДРОМ","Photo":"c80550a6-37e3-40ed-859b-e4128d940030","global_id":1058514549,"AdmArea":"Восточный административный округ","District":"район Сокольники","Location":"ПАРК КУЛЬТУРЫ И ОТДЫХА «СОКОЛЬНИКИ»","RegistrationNumber":"77-0244","State":"аттракцион зарегистрирован","LocationType":"парк","geoData":{"coordinates":[37.6721800621177,55.7942211696759],"type":"Point"},"geodata_center":{"type":"geometry","value":"0101000000C9E80BFF09D642403CC60E0AA9E54B40"}},{"ID":7,"Name":"JUMPING TOWER 16","Photo":"9c645e2f-f8ca-49b1-8fd5-9dfaf12ba695","global_id":1058514552,"AdmArea":"Восточный административный округ","District":"район Сокольники","Location":"ПАРК КУЛЬТУРЫ И ОТДЫХА «СОКОЛЬНИКИ»","RegistrationNumber":"77-0233","State":"аттракцион зарегистрирован","LocationType":"парк","geoData":{"coordinates":[37.672582237628,55.7943565476737],"type":"Point"},"geodata_center":{"type":"geometry","value":"0101000000CB3DBD2C17D64240A0CFB079ADE54B40"}},{"ID":8,"Name":"AIR RACE","Photo":"a768a8b1-2f2e-43e7-9b94-43313a5ffaad","global_id":1058514554,"AdmArea":"Восточный административный округ","District":"район Сокольники","Location":"ПАРК КУЛЬТУРЫ И ОТДЫХА «СОКОЛЬНИКИ»","RegistrationNumber":"77-0232","State":"аттракцион зарегистрирован","LocationType":"парк","geoData":{"coordinates":[37.6733766961283,55.7940853941619],"type":"Point"},"geodata_center":{"type":"geometry","value":"010100000040E1233531D6424009141797A4E54B40"}},{"ID":10,"Name":"Jump Around","Photo":"3cbfb263-6326-4ffd-a308-064cbb78fda7","global_id":1058514560,"AdmArea":"Восточный административный округ","District":"район Сокольники","Location":"ПАРК КУЛЬТУРЫ И ОТДЫХА «СОКОЛЬНИКИ»","RegistrationNumber":"77-0235","State":"аттракцион зарегистрирован","LocationType":"парк","geoData":{"coordinates":[37.6723735708221,55.794386805318],"type":"Point"},"geodata_center":{"type":"geometry","value":"01010000001AB0505610D64240839B8277AEE54B40"}},{"ID":11,"Name":"JUNGLE CAROUSEL","Photo":"e8b554f1-e280-459f-820a-276291cf3b6b","global_id":1058514563,"AdmArea":"Восточный административный округ","District":"район Сокольники","Location":"ПАРК КУЛЬТУРЫ И ОТДЫХА «СОКОЛЬНИКИ»","RegistrationNumber":"77-0245","State":"аттракцион зарегистрирован","LocationType":"парк","geoData":{"coordinates":[37.6724666421918,55.7941717024378],"type":"Point"},"geodata_center":{"type":"geometry","value":"0101000000ADEE0D6313D642407CB0186BA7E54B40"}},{"ID":37,"Name":"КОРАБЛЬ НА ВОЛНАХ","Photo":"2d7e920b-8e00-42c7-a976-751c6404af45","global_id":1058514577,"AdmArea":"Восточный административный округ","District":"район Перово","Location":"ПАРК КУЛЬТУРЫ И ОТДЫХА «ПЕРОВСКИЙ»","RegistrationNumber":"77-2205","State":"аттракцион зарегистрирован","LocationType":"парк","geoData":{"coordinates":[37.7735736635477,55.7419023424907],"type":"Point"},"geodata_center":{"type":"geometry","value":"0101000000FAFD387604E3424062E9ECA7F6DE4B40"}},{"ID":38,"Name":"МИНИ-ДЖЕТ КАСКАД","Photo":"90955ffd-f1fb-4a1d-92cc-e58ff67d2aef","global_id":1058514580,"AdmArea":"Восточный административный округ","District":"район Перово","Location":"ПАРК КУЛЬТУРЫ И ОТДЫХА «ПЕРОВСКИЙ»","RegistrationNumber":"77-2206","State":"аттракцион зарегистрирован","LocationType":"парк","geoData":{"coordinates":[37.77397315261,55.7418714831606],"type":"Point"},"geodata_center":{"type":"geometry","value":"01010000009438618D11E3424041010FA5F5DE4B40"}},{"ID":39,"Name":"АМЕРИКАНСКАЯ ГОРКА ГУСЕНИЦА","Photo":"9db29ec8-8f9f-4e4d-9a22-213138f81746","global_id":1058514583,"AdmArea":"Восточный административный округ","District":"район Перово","Location":"ПАРК КУЛЬТУРЫ И ОТДЫХА «ПЕРОВСКИЙ»","RegistrationNumber":"77-2204","State":"аттракцион зарегистрирован","LocationType":"парк","geoData":{"coordinates":[37.77397315261,55.7418714831606],"type":"Point"},"geodata_center":{"type":"geometry","value":"01010000009438618D11E3424041010FA5F5DE4B40"}},{"ID":40,"Name":"РАКУШКИ","Photo":"bb294407-d1fe-41bf-acf0-0e1139d3eb48","global_id":1058514586,"AdmArea":"Восточный административный округ","District":"район Перово","Location":"ПАРК КУЛЬТУРЫ И ОТДЫХА «ПЕРОВСКИЙ»","RegistrationNumber":"77-2209","State":"аттракцион зарегистрирован","LocationType":"парк","geoData":{"coordinates":[37.7741136084115,55.7419510876001],"type":"Point"},"geodata_center":{"type":"geometry","value":"01010000000BC29B2716E34240AB3CD440F8DE4B40"}},{"ID":47,"Name":"MERRY GO ROUND","Photo":"7a406670-8410-4628-812a-39e56637ccc6","global_id":1058514594,"AdmArea":"Восточный административный округ","District":"район Измайлово","Location":"ПАРК КУЛЬТУРЫ И ОТДЫХА «ИЗМАЙЛОВСКИЙ»","RegistrationNumber":"77-0253","State":"аттракцион зарегистрирован","LocationType":"парк","geoData":{"coordinates":[37.7490869378041,55.7746129207629],"type":"Point"},"geodata_center":{"type":"geometry","value":"01010000005DDDAD14E2DF424025DE248426E34B40"}},{"ID":48,"Name":"TOY SWING","Photo":"cc9f0e66-b629-4eb3-8b42-88cd8a8f8eea","global_id":1058514597,"AdmArea":"Восточный административный округ","District":"район Измайлово","Location":"ПАРК КУЛЬТУРЫ И ОТДЫХА «ИЗМАЙЛОВСКИЙ»","RegistrationNumber":"77-0250","State":"аттракцион зарегистрирован","LocationType":"парк","geoData":{"coordinates":[37.7493665123929,55.7748898445496],"type":"Point"},"geodata_center":{"type":"geometry","value":"0101000000FEB8EB3DEBDF4240F02B26972FE34B40"}},{"ID":49,"Name":"HAPPY KANGAROO","Photo":"6b76c825-fd08-4a71-a73b-467a79f9fd89","global_id":1058514599,"AdmArea":"Восточный административный округ","District":"район Измайлово","Location":"ПАРК КУЛЬТУРЫ И ОТДЫХА «ИЗМАЙЛОВСКИЙ»","RegistrationNumber":"77-2233","State":"аттракцион зарегистрирован","LocationType":"парк","geoData":{"coordinates":[37.7493665123929,55.7748898445496],"type":"Point"},"geodata_center":{"type":"geometry","value":"0101000000FEB8EB3DEBDF4240F02B26972FE34B40"}},{"ID":50,"Name":"KIDDI WHEEL","Photo":"2867e536-7f63-44ad-94c0-c5894a69da81","global_id":1058514602,"AdmArea":"Восточный административный округ","District":"район Измайлово","Location":"ПАРК КУЛЬТУРЫ И ОТДЫХА «ИЗМАЙЛОВСКИЙ»","RegistrationNumber":"77-0255","State":"аттракцион зарегистрирован","LocationType":"парк","geoData":{"coordinates":[37.7493665123929,55.7748898445496],"type":"Point"},"geodata_center":{"type":"geometry","value":"0101000000FEB8EB3DEBDF4240F02B26972FE34B40"}},{"ID":52,"Name":"МINI CONVOY RACE","Photo":"07687d7e-0e27-4718-9d7a-486111330c64","global_id":1058514608,"AdmArea":"Восточный административный округ","District":"район Измайлово","Location":"ПАРК КУЛЬТУРЫ И ОТДЫХА «ИЗМАЙЛОВСКИЙ»","RegistrationNumber":"77-0252","State":"аттракцион зарегистрирован","LocationType":"парк","geoData":{"coordinates":[37.7493665123929,55.7748898445496],"type":"Point"},"geodata_center":{"type":"geometry","value":"0101000000FEB8EB3DEBDF4240F02B26972FE34B40"}},{"ID":53,"Name":"CHOCO CUPS","Photo":"565db45d-c6e2-4e44-a0bc-4085ae44f416","global_id":1058514610,"AdmArea":"Восточный административный округ","District":"район Измайлово","Location":"ПАРК КУЛЬТУРЫ И ОТДЫХА «ИЗМАЙЛОВСКИЙ»","RegistrationNumber":"77-0251","State":"аттракцион зарегистрирован","LocationType":"парк","geoData":{"coordinates":[37.7493665123929,55.7748898445496],"type":"Point"},"geodata_center":{"type":"geometry","value":"0101000000FEB8EB3DEBDF4240F02B26972FE34B40"}},{"ID":56,"Name":"DOUBLE COASTER","Photo":"c2fb184a-ef2c-4c65-9c30-ad7ede5299b1","global_id":1058515001,"AdmArea":"Восточный административный округ","District":"район Измайлово","Location":"ПАРК КУЛЬТУРЫ И ОТДЫХА «ИЗМАЙЛОВСКИЙ»","RegistrationNumber":"77-2214","State":"аттракцион зарегистрирован","LocationType":"парк","geoData":{"coordinates":[37.7493665123929,55.7748898445496],"type":"Point"},"geodata_center":{"type":"geometry","value":"0101000000FEB8EB3DEBDF4240F02B26972FE34B40"}},{"ID":66,"Name":"ПАДАЮЩАЯ ЗВЕЗДА","Photo":"aae8229b-ace0-4659-8e8a-2cc7107c8df5","global_id":1058515016,"AdmArea":"Северо-Восточный административный округ","District":"район Лианозово","Location":"ГАУК Г. МОСКВЫ ПАРК КУЛЬТУРЫ И ОТДЫХА «ЛИАНОЗОВСКИЙ»","RegistrationNumber":"77-0216","State":"аттракцион зарегистрирован","LocationType":"парк","geoData":{"coordinates":[37.5732287208299,55.90027174233],"type":"Point"},"geodata_center":{"type":"geometry","value":"0101000000CB8B088F5FC942400269BD1A3CF34B40"}},{"ID":76,"Name":"КАЧЕЛИ СОБАЧКА","Photo":"41ac5b7d-0aab-453f-bd91-aae82d7669b3","global_id":1058515019,"AdmArea":"Юго-Западный административный округ","District":"Обручевский район","Location":"ГАУК Г.МОСКВЫ УСАДЬБА ВОРОНЦОВО","RegistrationNumber":"77-2222","State":"аттракцион зарегистрирован","LocationType":"парк","geoData":{"coordinates":[37.5270910511154,55.6682915478147],"type":"Point"},"geodata_center":{"type":"geometry","value":"0101000000054735B877C342405507D3938AD54B40"}},{"ID":77,"Name":"ПОЕЗД ГУСЕНИЦА","Photo":"7e55df49-8a02-4c8f-8095-1eb62e15c881","global_id":1058515021,"AdmArea":"Юго-Западный административный округ","District":"Обручевский район","Location":"ГАУК Г.МОСКВЫ УСАДЬБА ВОРОНЦОВО","RegistrationNumber":"77-2220","State":"аттракцион зарегистрирован","LocationType":"парк","geoData":{"coordinates":[37.5269045792751,55.6687670689156],"type":"Point"},"geodata_center":{"type":"geometry","value":"0101000000B60CF89B71C342402FD1C8289AD54B40"}},{"ID":78,"Name":"ДЕРЕВЕНСКИЙ ПОЕЗД","Photo":"999c12ba-8cda-4f44-b175-884fa2edaba3","global_id":1058515023,"AdmArea":"Юго-Западный административный округ","District":"Обручевский район","Location":"ГАУК Г.МОСКВЫ УСАДЬБА ВОРОНЦОВО","RegistrationNumber":"77-2219","State":"аттракцион зарегистрирован","LocationType":"парк","geoData":{"coordinates":[37.5272495740707,55.6679248499601],"type":"Point"},"geodata_center":{"type":"geometry","value":"010100000059BBFEE97CC34240D561BD8F7ED54B40"}},{"ID":79,"Name":"KIDDI WHEEL","Photo":"2cf4f6ae-9fd4-4637-9638-25c869f4a032","global_id":1058515026,"AdmArea":"Юго-Западный административный округ","District":"Обручевский район","Location":"ГАУК Г.МОСКВЫ УСАДЬБА ВОРОНЦОВО","RegistrationNumber":"77-2216","State":"аттракцион зарегистрирован","LocationType":"парк","geoData":{"coordinates":[37.5271117279371,55.6682988535151],"type":"Point"},"geodata_center":{"type":"geometry","value":"0101000000F769A86578C3424098E61BD18AD54B40"}},{"ID":464,"Name":"MINI JET-4","Photo":"93597fe9-9f71-45cf-ba48-f9fbe846dba2","global_id":1058515036,"AdmArea":"Северо-Восточный административный округ","District":"район Лианозово","Location":"ГАУК Г. МОСКВЫ ПАРК КУЛЬТУРЫ И ОТДЫХА «ЛИАНОЗОВСКИЙ»","RegistrationNumber":"77-0215","State":"аттракцион зарегистрирован","LocationType":"парк","geoData":{"coordinates":[37.5729377406812,55.9002629246729],"type":"Point"},"geodata_center":{"type":"geometry","value":"01010000005F6F1D0656C94240BCA2C5D03BF34B40"}},{"ID":465,"Name":"ЛЕТАЮЩАЯ ТАРЕЛКА","Photo":"5ddb72ec-fc89-4fc3-921b-9add7bccec3b","global_id":1058515039,"AdmArea":"Северо-Восточный административный округ","District":"район Лианозово","Location":"ГАУК Г. МОСКВЫ ПАРК КУЛЬТУРЫ И ОТДЫХА «ЛИАНОЗОВСКИЙ»","RegistrationNumber":"77-0213","State":"аттракцион зарегистрирован","LocationType":"парк","geoData":{"coordinates":[37.5723558268351,55.8997338296952],"type":"Point"},"geodata_center":{"type":"geometry","value":"01010000004CF7AAF442C94240A1D2667A2AF34B40"}},{"ID":466,"Name":"КОРСАР","Photo":"ee547bd8-84d1-4e03-8aa5-5382d1a32abc","global_id":1058515041,"AdmArea":"Северо-Восточный административный округ","District":"район Лианозово","Location":"ГАУК Г. МОСКВЫ ПАРК КУЛЬТУРЫ И ОТДЫХА «ЛИАНОЗОВСКИЙ»","RegistrationNumber":"77-0236","State":"аттракцион зарегистрирован","LocationType":"парк","geoData":{"coordinates":[37.5714849386256,55.9002727683617],"type":"Point"},"geodata_center":{"type":"geometry","value":"0101000000E0C6206B26C94240E1CB58233CF34B40"}},{"ID":468,"Name":"ВИХРЬ","Photo":"962a0b69-aab0-4ce2-9678-e9087153d45b","global_id":1058515044,"AdmArea":"Северо-Восточный административный округ","District":"район Лианозово","Location":"ГАУК Г. МОСКВЫ ПАРК КУЛЬТУРЫ И ОТДЫХА «ЛИАНОЗОВСКИЙ»","RegistrationNumber":"77-0219","State":"аттракцион зарегистрирован","LocationType":"парк","geoData":{"coordinates":[37.5723345234049,55.8998997811668],"type":"Point"},"geodata_center":{"type":"geometry","value":"0101000000A832F64142C94240FAE480EA2FF34B40"}},{"ID":469,"Name":"Midi Family Swinger","Photo":"8bc76a8c-cd44-47b2-a96a-4d4338a02057","global_id":1058515046,"AdmArea":"Восточный административный округ","District":"район Сокольники","Location":"ПАРК КУЛЬТУРЫ И ОТДЫХА «СОКОЛЬНИКИ»","RegistrationNumber":"77-0238","State":"аттракцион зарегистрирован","LocationType":"парк","geoData":{"coordinates":[37.6727991577218,55.7941681197333],"type":"Point"},"geodata_center":{"type":"geometry","value":"0101000000839865481ED64240E8E30A4DA7E54B40"}},{"ID":470,"Name":"Magic Bikes","Photo":"edec605f-c9be-4b68-8a03-ec87a6720e12","global_id":1058515049,"AdmArea":"Восточный административный округ","District":"район Сокольники","Location":"ПАРК КУЛЬТУРЫ И ОТДЫХА «СОКОЛЬНИКИ»","RegistrationNumber":"77-0230","State":"аттракцион зарегистрирован","LocationType":"парк","geoData":{"coordinates":[37.6730666486743,55.7943175879549],"type":"Point"},"geodata_center":{"type":"geometry","value":"0101000000C90A460C27D64240B573DF32ACE54B40"}},{"ID":472,"Name":"МИНИ БОТИК","Photo":"2d2aad4d-21f4-4fde-ae47-4b2fca9c4ad7","global_id":1058515055,"AdmArea":"Восточный административный округ","District":"район Сокольники","Location":"ПАРК КУЛЬТУРЫ И ОТДЫХА «СОКОЛЬНИКИ»","RegistrationNumber":"77-2231","State":"аттракцион зарегистрирован","LocationType":"парк","geoData":{"coordinates":[37.6732334128288,55.7943173527356],"type":"Point"},"geodata_center":{"type":"geometry","value":"01010000004C5631832CD642408C52E630ACE54B40"}},{"ID":473,"Name":"ВАЛЬС","Photo":"03a52891-9398-4604-b475-f5de2a74d865","global_id":1058515057,"AdmArea":"Северо-Восточный административный округ","District":"район Лианозово","Location":"ГАУК Г. МОСКВЫ ПАРК КУЛЬТУРЫ И ОТДЫХА «ЛИАНОЗОВСКИЙ»","RegistrationNumber":"77-0218","State":"аттракцион зарегистрирован","LocationType":"парк","geoData":{"coordinates":[37.5716725136761,55.8997045995064],"type":"Point"},"geodata_center":{"type":"geometry","value":"010100000066219F902CC942406E78338529F34B40"}},{"ID":478,"Name":"ЦЕПОЧНАЯ КАРУСЕЛЬ","Photo":"8c8f5453-cacb-45c7-b26c-b0287db59e96","global_id":1058515493,"AdmArea":"Центральный административный округ","District":"район Якиманка","Location":"ЦЕНТРАЛЬНЫЙ ПАРК КУЛЬТУРЫ И ОТДЫХА ИМЕНИ М. ГОРЬКОГО","RegistrationNumber":"77-0223","State":"аттракцион зарегистрирован","LocationType":"парк","geoData":{"coordinates":[37.6050066704694,55.7291188798085],"type":"Point"},"geodata_center":{"type":"geometry","value":"010100000096C3CBDB70CD42403ED677C453DD4B40"}},{"ID":482,"Name":"ЦЕПОЧНАЯ КАРУСЕЛЬ С ПОДЪЕМОМ","Photo":"62e732a3-c372-4c6b-b4e0-47b4e9b2e389","global_id":1058515496,"AdmArea":"Западный административный округ","District":"район Крылатское","Location":"ПАРК «SKAZKA»","RegistrationNumber":"77-2227","State":"аттракцион зарегистрирован","LocationType":"парк","geoData":{"coordinates":[37.433230206074,55.7715171631351],"type":"Point"},"geodata_center":{"type":"geometry","value":"01010000001A5D5F1674B74240E0FB0B13C1E24B40"}},{"ID":483,"Name":"FLYING BIKES","Photo":"a7c0319c-bcee-4303-a5ed-0d9b3ecc7b7d","global_id":1058515498,"AdmArea":"Западный административный округ","District":"район Крылатское","Location":"ПАРК «SKAZKA»","RegistrationNumber":"77-2226","State":"аттракцион зарегистрирован","LocationType":"парк","geoData":{"coordinates":[37.4335015498555,55.7716965191405],"type":"Point"},"geodata_center":{"type":"geometry","value":"010100000082B291FA7CB74240A01298F3C6E24B40"}},{"ID":491,"Name":"FARM TRAIN","Photo":"e01e7974-a7bf-404e-a628-6cb71948d96e","global_id":1058515510,"AdmArea":"Восточный административный округ","District":"район Измайлово","Location":"ПАРК КУЛЬТУРЫ И ОТДЫХА «ИЗМАЙЛОВСКИЙ»","RegistrationNumber":"77-0254","State":"аттракцион зарегистрирован","LocationType":"парк","geoData":{"coordinates":[37.749478625691,55.7747701709281],"type":"Point"},"geodata_center":{"type":"geometry","value":"0101000000643265EAEEDF4240BE0641AB2BE34B40"}},{"ID":503,"Name":"ВЕСЕЛЫЕ ГОРКИ","Photo":"8fee4a5d-11f3-411f-ac99-dc300224c6c1","global_id":1058515516,"AdmArea":"Северо-Восточный административный округ","District":"район Лианозово","Location":"ГАУК Г. МОСКВЫ ПАРК КУЛЬТУРЫ И ОТДЫХА «ЛИАНОЗОВСКИЙ»","RegistrationNumber":"77-0217","State":"аттракцион зарегистрирован","LocationType":"парк","geoData":{"coordinates":[37.5720216011788,55.899668096041],"type":"Point"},"geodata_center":{"type":"geometry","value":"010100000091D5FA0038C9424018E0FC5228F34B40"}},{"ID":505,"Name":"МАЛАЯ ЦЕПОЧНАЯ КАРУСЕЛЬ","Photo":"ffd17b4c-2fea-4e3a-a3b8-12e6e7e5c3b9","global_id":1058515522,"AdmArea":"Северо-Восточный административный округ","District":"район Лианозово","Location":"ГАУК Г. МОСКВЫ ПАРК КУЛЬТУРЫ И ОТДЫХА «ЛИАНОЗОВСКИЙ»","RegistrationNumber":"77-0214","State":"аттракцион зарегистрирован","LocationType":"парк","geoData":{"coordinates":[37.5717327375417,55.9002606369045],"type":"Point"},"geodata_center":{"type":"geometry","value":"0101000000ACE5D0892EC94240C5B094BD3BF34B40"}},{"ID":523,"Name":"MINI TYPHOON 360","Photo":"ea290c2a-159d-4774-b812-75581e4ae30f","global_id":1058515539,"AdmArea":"Восточный административный округ","District":"район Сокольники","Location":"ПАРК КУЛЬТУРЫ И ОТДЫХА «СОКОЛЬНИКИ»","RegistrationNumber":"77-0240","State":"аттракцион зарегистрирован","LocationType":"парк","geoData":{"coordinates":[37.6728580446215,55.7943470566006],"type":"Point"},"geodata_center":{"type":"geometry","value":"0101000000FC3F603620D64240FEE2122AADE54B40"}},{"ID":532,"Name":"КАТАЛЬНАЯ ГОРА МОЛНИЯ","Photo":"e3b5fb80-bab9-4b21-830e-dd24704fca43","global_id":1058515674,"AdmArea":"Западный административный округ","District":"район Крылатское","Location":"ПАРК «SKAZKA»","RegistrationNumber":"77-2229","State":"аттракцион зарегистрирован","LocationType":"парк","geoData":{"coordinates":[37.4328346118291,55.7719590747685],"type":"Point"},"geodata_center":{"type":"geometry","value":"0101000000FE30E31F67B742408FFD118ECFE24B40"}},{"ID":537,"Name":"CAROUSEL DOUBLE-DECK - PARK MODEL","Photo":"69b24486-15ab-4785-a61a-d4a942d4921d","global_id":1058515679,"AdmArea":"Зеленоградский административный округ","District":"район Матушкино","Location":"Г. МОСКВА, ЗЕЛЕНОГРАД, ПЛ. ЮНОСТИ","RegistrationNumber":"77-0298","State":"аттракцион зарегистрирован","LocationType":"площадка","geoData":{"coordinates":[37.2078947469468,56.0008121691272],"type":"Point"},"geodata_center":{"type":"geometry","value":"0101000000CC92894B9C9A424083EBF79C1A004C40"}},{"ID":609,"Name":"БАШНЯ СВОБОДНОГО ПАДЕНИЯ «JUMPING STAR 12M»","Photo":"c314d40e-aee3-45b8-be0a-6bd1616a908a","global_id":1058515718,"AdmArea":"Западный административный округ","District":"район Крылатское","Location":"ПАРК «SKAZKA»","RegistrationNumber":"77-0278","State":"аттракцион зарегистрирован","LocationType":"парк","geoData":{"coordinates":[37.4347368236905,55.7720813778123],"type":"Point"},"geodata_center":{"type":"geometry","value":"01010000000D0FCC74A5B74240FCC60590D3E24B40"}},{"ID":611,"Name":"MINI JET 6 «APACHE» ПАРКОВАЯ МОДЕЛЬ","Photo":"585d256d-0c1d-4941-a0bc-409c522c0426","global_id":1058515721,"AdmArea":"Западный административный округ","District":"район Крылатское","Location":"ПАРК «SKAZKA»","RegistrationNumber":"77-0277","State":"аттракцион зарегистрирован","LocationType":"парк","geoData":{"coordinates":[37.4349447398148,55.7719400731904],"type":"Point"},"geodata_center":{"type":"geometry","value":"01010000002C89EC44ACB742409469ACEECEE24B40"}},{"ID":614,"Name":"ГИГАНТСКИЕ КАЧЕЛИ 360","Photo":"a40c0028-1fbc-4c92-9362-a660f58e0a5e","global_id":1058515731,"AdmArea":"Западный административный округ","District":"район Крылатское","Location":"ПАРК «SKAZKA»","RegistrationNumber":"77-2230","State":"аттракцион зарегистрирован","LocationType":"парк","geoData":{"coordinates":[37.4343843694581,55.7720272410845],"type":"Point"},"geodata_center":{"type":"geometry","value":"0101000000B05B32E899B742401C0AE4C9D1E24B40"}},{"ID":617,"Name":"БЕЗФУНДАМЕНТНОЕ ВЫСОТОЙ 35 МЕТРОВ","Photo":"115c8b63-a094-422a-a68b-c95d6cea79ac","global_id":1058515739,"AdmArea":"Западный административный округ","District":"район Крылатское","Location":"ПАРК «SKAZKA»","RegistrationNumber":"77-0276","State":"аттракцион зарегистрирован","LocationType":"парк","geoData":{"coordinates":[37.4348618216783,55.7722030398651],"type":"Point"},"geodata_center":{"type":"geometry","value":"010100000090315B8DA9B74240D10B998CD7E24B40"}},{"ID":625,"Name":"SKY TOWER 38M","Photo":"25cc2368-1253-4e61-9881-db4bce9c7b38","global_id":1058516004,"AdmArea":"Западный административный округ","District":"район Крылатское","Location":"ПАРК «SKAZKA»","RegistrationNumber":"77-2224","State":"аттракцион зарегистрирован","LocationType":"парк","geoData":{"coordinates":[37.43239805762,55.7718654297168],"type":"Point"},"geodata_center":{"type":"geometry","value":"01010000007C2ACED158B74240F4C5847CCCE24B40"}},{"ID":637,"Name":"FAMILY SWINGER","Photo":"27154890-4b72-4320-909c-31c902aba148","global_id":1058516016,"AdmArea":"Западный административный округ","District":"район Крылатское","Location":"ПАРК «SKAZKA»","RegistrationNumber":"77-0273","State":"аттракцион зарегистрирован","LocationType":"парк","geoData":{"coordinates":[37.434460869414,55.7717897245584],"type":"Point"},"geodata_center":{"type":"geometry","value":"010100000032C3EC699CB74240052F7501CAE24B40"}},{"ID":642,"Name":"ЛЕТАЮЩИЕ СЛОНЫ","Photo":"61d20d26-6e62-4b45-a522-1eb9ecde4109","global_id":1058516030,"AdmArea":"Западный административный округ","District":"район Крылатское","Location":"ПАРК «SKAZKA»","RegistrationNumber":"77-0279","State":"аттракцион зарегистрирован","LocationType":"парк","geoData":{"coordinates":[37.43402691397,55.7717644587255],"type":"Point"},"geodata_center":{"type":"geometry","value":"0101000000E08AA4318EB742407938832DC9E24B40"}},{"ID":645,"Name":"ВЕТЕРОК","Photo":"92b95f10-b469-4b7d-a92b-022e5f1b81ce","global_id":1058516036,"AdmArea":"Восточный административный округ","District":"район Перово","Location":"ПАРК КУЛЬТУРЫ И ОТДЫХА «ПЕРОВСКИЙ»","RegistrationNumber":"77-2211","State":"аттракцион зарегистрирован","LocationType":"парк","geoData":{"coordinates":[37.7743804064764,55.7418372552248],"type":"Point"},"geodata_center":{"type":"geometry","value":"0101000000613DACE51EE342409212EF85F4DE4B40"}},{"ID":646,"Name":"ДЕТСКАЯ ЖЕЛЕЗНАЯ ДОРОГА","Photo":"674473f2-4526-4ca8-a58a-96d2812d3c33","global_id":1058516037,"AdmArea":"Восточный административный округ","District":"район Перово","Location":"ПАРК КУЛЬТУРЫ И ОТДЫХА «ПЕРОВСКИЙ»","RegistrationNumber":"77-2203","State":"аттракцион зарегистрирован","LocationType":"парк","geoData":{"coordinates":[37.7743263256064,55.7418373248087],"type":"Point"},"geodata_center":{"type":"geometry","value":"0101000000A57402201DE34240B0808486F4DE4B40"}},{"ID":651,"Name":"ВАЛЬС","Photo":"5354f90c-0d81-40e7-aed8-2bb008cfc7d4","global_id":1058516048,"AdmArea":"Западный административный округ","District":"район Крылатское","Location":"ПАРК «SKAZKA»","RegistrationNumber":"77-0275","State":"аттракцион зарегистрирован","LocationType":"парк","geoData":{"coordinates":[37.4335677350707,55.7716500713057],"type":"Point"},"geodata_center":{"type":"geometry","value":"0101000000625DC5257FB74240631BF66DC5E24B40"}},{"ID":652,"Name":"WORLD TRIP","Photo":"56bee057-a1e2-4d6e-8a87-2161e44379e6","global_id":1058516050,"AdmArea":"Восточный административный округ","District":"район Перово","Location":"ПАРК КУЛЬТУРЫ И ОТДЫХА «ПЕРОВСКИЙ»","RegistrationNumber":"77-2212","State":"аттракцион зарегистрирован","LocationType":"парк","geoData":{"coordinates":[37.7744338728691,55.741916678041],"type":"Point"},"geodata_center":{"type":"geometry","value":"010100000097712EA620E3424084452E20F7DE4B40"}},{"ID":656,"Name":"АВТОДРОМ","Photo":"735f4982-c8d1-4781-937f-b55f491954fc","global_id":1058516055,"AdmArea":"Западный административный округ","District":"район Крылатское","Location":"ПАРК «SKAZKA»","RegistrationNumber":"77-0274","State":"аттракцион зарегистрирован","LocationType":"парк","geoData":{"coordinates":[37.4340584450405,55.7717406071004],"type":"Point"},"geodata_center":{"type":"geometry","value":"01010000003800253A8FB74240E03E6E65C8E24B40"}},{"ID":657,"Name":"AIR RACE 6.2","Photo":"46d702fc-6e6d-4bd5-a2e4-5a08aae4d4d0","global_id":1058516057,"AdmArea":"Западный административный округ","District":"район Крылатское","Location":"ПАРК «SKAZKA»","RegistrationNumber":"77-2225","State":"аттракцион зарегистрирован","LocationType":"парк","geoData":{"coordinates":[37.4338093272085,55.7717488629055],"type":"Point"},"geodata_center":{"type":"geometry","value":"0101000000BC87641087B74240BF73AFAAC8E24B40"}},{"ID":679,"Name":"СМЕЛЫЙ ЛЕТЧИК (AIR PORT 6B MINI JET)","Photo":"a974830f-b8f7-4c09-bb67-0558d6cdbc34","global_id":1058516112,"AdmArea":"Центральный административный округ","District":"район Якиманка","Location":"ЦЕНТРАЛЬНЫЙ ПАРК КУЛЬТУРЫ И ОТДЫХА ИМЕНИ М. ГОРЬКОГО","RegistrationNumber":"77-0224","State":"аттракцион зарегистрирован","LocationType":"парк","geoData":{"coordinates":[37.6049620571304,55.7287671188149],"type":"Point"},"geodata_center":{"type":"geometry","value":"01010000000F598D656FCD4240E7DAAE3D48DD4B40"}},{"ID":680,"Name":"ВИРТУАЛЬНАЯ РЕАЛЬНОСТЬ БОИНГ","Photo":"79888ab8-b1a6-41c1-a0de-d74b546848cc","global_id":1058516115,"AdmArea":"Центральный административный округ","District":"район Якиманка","Location":"ЦЕНТРАЛЬНЫЙ ПАРК КУЛЬТУРЫ И ОТДЫХА ИМЕНИ М. ГОРЬКОГО","RegistrationNumber":"77-0227","State":"аттракцион зарегистрирован","LocationType":"парк","geoData":{"coordinates":[37.6056029338574,55.7287799632637],"type":"Point"},"geodata_center":{"type":"geometry","value":"0101000000C3A39D6584CD42404B196EA948DD4B40"}},{"ID":681,"Name":"ДЕТСКОЕ КОЛЕСО ОБОЗРЕНИЯ","Photo":"2bfdfb76-d590-411c-b530-52006def154b","global_id":1058516117,"AdmArea":"Центральный административный округ","District":"район Якиманка","Location":"ЦЕНТРАЛЬНЫЙ ПАРК КУЛЬТУРЫ И ОТДЫХА ИМЕНИ М. ГОРЬКОГО","RegistrationNumber":"77-0226","State":"аттракцион зарегистрирован","LocationType":"парк","geoData":{"coordinates":[37.6054720129032,55.7286394393423],"type":"Point"},"geodata_center":{"type":"geometry","value":"010100000007085F1B80CD42408946A10E44DD4B40"}},{"ID":708,"Name":"ЭВРИКА","Photo":"89825858-9566-4979-8958-1437138ed8a5","global_id":1058516144,"AdmArea":"Центральный административный округ","District":"район Якиманка","Location":"ЦЕНТРАЛЬНЫЙ ПАРК КУЛЬТУРЫ И ОТДЫХА ИМЕНИ М. ГОРЬКОГО","RegistrationNumber":"77-0225","State":"аттракцион зарегистрирован","LocationType":"парк","geoData":{"coordinates":[37.6048790750538,55.7288006745599],"type":"Point"},"geodata_center":{"type":"geometry","value":"010100000001B272AD6CCD4240D1442B5749DD4B40"}},{"ID":744,"Name":"Корсар","Photo":"5d464aa2-fb76-4778-ae6b-dae6df549952","global_id":1058516158,"AdmArea":"Восточный административный округ","District":"район Сокольники","Location":"ПАРК КУЛЬТУРЫ И ОТДЫХА «СОКОЛЬНИКИ»","RegistrationNumber":"77-0231","State":"аттракцион зарегистрирован","LocationType":"парк","geoData":{"coordinates":[37.6716232416438,55.7941281109839],"type":"Point"},"geodata_center":{"type":"geometry","value":"0101000000FC0B19C0F7D5424052C16CFDA5E54B40"}},{"ID":745,"Name":"FLYNG TIGERS","Photo":"79aff52f-5d48-4729-b5e0-d13515178186","global_id":1058516162,"AdmArea":"Восточный административный округ","District":"район Сокольники","Location":"ПАРК КУЛЬТУРЫ И ОТДЫХА «СОКОЛЬНИКИ»","RegistrationNumber":"77-0246","State":"аттракцион зарегистрирован","LocationType":"парк","geoData":{"coordinates":[37.6722130091223,55.7943212065933],"type":"Point"},"geodata_center":{"type":"geometry","value":"010100000021106D130BD642402D6B3A51ACE54B40"}},{"ID":2328,"Name":"МГ.4049","Photo":"c064be9d-fe38-4f6e-92a3-e7de50909513","global_id":1058516182,"AdmArea":"Восточный административный округ","District":"район Измайлово","Location":"ПАРК КУЛЬТУРЫ И ОТДЫХА «ИЗМАЙЛОВСКИЙ»","RegistrationNumber":"77-0202","State":"регистрация аттракциона приостановлена","LocationType":"парк","geoData":{"coordinates":[37.7482810873736,55.7750091453832],"type":"Point"},"geodata_center":{"type":"geometry","value":"01010000000E3EB7ACC7DF4240C4C2EA7F33E34B40"}},{"ID":2314,"Name":"CAROUSEL 6,70","Photo":"e92f699d-a709-4ddf-89c0-2a42da199022","global_id":1060205189,"AdmArea":"Центральный административный округ","District":"район Арбат","Location":"Г. МОСКВА, УЛ. НОВЫЙ АРБАТ, Д.13","RegistrationNumber":"77-0188","State":"аттракцион зарегистрирован","LocationType":"площадка","geoData":{"coordinates":[37.5953191302495,55.7523596636086],"type":"Point"},"geodata_center":{"type":"geometry","value":"01010000006E8DD16A33CC4240AC034B524DE04B40"}},{"ID":2315,"Name":"CAROUSEL DOUBLE STOREY 10MEH","Photo":"a0f96579-097d-4c4c-9992-08c8e4714555","global_id":1060205191,"AdmArea":"Южный административный округ","District":"район Братеево","Location":"Г. МОСКВА, КЛЮЧЕВАЯ УЛ., Д.22, К.1","RegistrationNumber":"77-0189","State":"аттракцион зарегистрирован","LocationType":"площадка","geoData":{"coordinates":[37.7624818637527,55.6327303037348],"type":"Point"},"geodata_center":{"type":"geometry","value":"0101000000324E760199E142405ADD7C4EFDD04B40"}},{"ID":2316,"Name":"CAROUSEL DOUBLE STOREY 10MEH","Photo":"cc26bb14-7a08-4534-bf5e-7c24cf1c155f","global_id":1060205193,"AdmArea":"Северо-Западный административный округ","District":"район Куркино","Location":"КУРКИНО","RegistrationNumber":"77-0190","State":"аттракцион зарегистрирован","LocationType":"площадка","geoData":{"coordinates":[37.3871872709549,55.8982983076375],"type":"Point"},"geodata_center":{"type":"geometry","value":"0101000000DE163D5A8FB1424076AD5E70FBF24B40"}},{"ID":2317,"Name":"CAROUSEL DOUBLE STOREY 10MEH","Photo":"e57e0729-6711-47b5-9f79-ae58377f415b","global_id":1060205195,"AdmArea":"Юго-Восточный административный округ","District":"район Марьино","Location":"УЛ.ПЕРЕРВА","RegistrationNumber":"77-0191","State":"аттракцион зарегистрирован","LocationType":"площадка","geoData":{"coordinates":[37.7420928332227,55.6560026744041],"type":"Point"},"geodata_center":{"type":"geometry","value":"0101000000CCA4E0E5FCDE4240B75348E5F7D34B40"}},{"ID":2318,"Name":"CAROUSEL DOUBLE STOREY 10MEH","Photo":"75977398-7350-441e-8f3c-567798d71765","global_id":1060205197,"AdmArea":"Западный административный округ","District":"район Очаково-Матвеевское","Location":"УЛ.МАТВЕЕВСКАЯ","RegistrationNumber":"77-0192","State":"аттракцион зарегистрирован","LocationType":"площадка","geoData":{"coordinates":[37.4790684824319,55.7046903839194],"type":"Point"},"geodata_center":{"type":"geometry","value":"01010000006F4BB41D52BD4240AB5E644B33DA4B40"}},{"ID":2319,"Name":"CAROUSEL DOUBLE STOREY 10MEH","Photo":"95c1fe6e-f916-4111-89ae-3f997b4041fa","global_id":1060205199,"AdmArea":"Восточный административный округ","District":"район Гольяново","Location":"СКВЕР У ГОЛЬЯНОВСКОГО ПРУДА","RegistrationNumber":"77-0295","State":"аттракцион зарегистрирован","LocationType":"площадка","geoData":{"coordinates":[37.7993325541886,55.8215067159502],"type":"Point"},"geodata_center":{"type":"geometry","value":"0101000000216F758750E64240AB39CF2127E94B40"}},{"ID":2320,"Name":"CAROUSEL DOUBLE DECK-PARK MODEL","Photo":"aa69b297-4f9d-469b-b688-15816fa2a6a8","global_id":1060205201,"AdmArea":"Юго-Западный административный округ","District":"район Черёмушки","Location":"Г. МОСКВА, ПРОФСОЮЗНАЯ УЛ., Д. 41","RegistrationNumber":"77-0194","State":"аттракцион зарегистрирован","LocationType":"площадка","geoData":{"coordinates":[37.5546414220715,55.6698954144739],"type":"Point"},"geodata_center":{"type":"geometry","value":"0101000000E466787DFEC64240EF730822BFD54B40"}},{"ID":2322,"Name":"CAROUSEL DOUBLE DECK-PARK MODEL","Photo":"5182d43e-7510-469b-9196-d86812783f6c","global_id":1060205203,"AdmArea":"Восточный административный округ","District":"район Новокосино","Location":"Г. МОСКВА, ГОРОДЕЦКАЯ УЛ., Д. 10","RegistrationNumber":"77-0195","State":"аттракцион зарегистрирован","LocationType":"площадка","geoData":{"coordinates":[37.865125732474,55.7427785291617],"type":"Point"},"geodata_center":{"type":"geometry","value":"0101000000B1F3A370BCEE4240D375E95D13DF4B40"}},{"ID":2323,"Name":"CAROUSEL DOUBLE STOREY 10ME","Photo":"5572ebf7-0013-4ef1-9907-572d861c2f16","global_id":1060205205,"AdmArea":"Юго-Восточный административный округ","District":"район Кузьминки","Location":"Г. МОСКВА, ПЛОЩАДЬ СЛАВЫ","RegistrationNumber":"77-0196","State":"аттракцион зарегистрирован","LocationType":"площадка","geoData":{"coordinates":[37.7660973624138,55.7066224906348],"type":"Point"},"geodata_center":{"type":"geometry","value":"01010000003F8F767A0FE2424087F2139B72DA4B40"}},{"ID":2324,"Name":"CAROUSEL DOUBLE DECK-PARK MODEL","Photo":"fc8a7d56-978f-44ab-9e05-1be2a5691fac","global_id":1060205208,"AdmArea":"Юго-Восточный административный округ","District":"район Кузьминки","Location":"Г. МОСКВА, БУЛЬВ. ДМИТРИЯ ДОНСКОГО, Д.11","RegistrationNumber":"77-0197","State":"аттракцион зарегистрирован","LocationType":"площадка","geoData":{"coordinates":[37.7660973624138,55.7066224906348],"type":"Point"},"geodata_center":{"type":"geometry","value":"01010000003F8F767A0FE2424087F2139B72DA4B40"}},{"ID":2325,"Name":"CAROUSEL DOUBLE STOREY 10ME","Photo":"6209a3c2-e5f2-4b76-9bc6-f97c01f07a45","global_id":1060205210,"AdmArea":"Северо-Западный административный округ","District":"район Митино","Location":"Г. МОСКВА, УЛ. МИТИНСКАЯ, Д.31","RegistrationNumber":"77-0198","State":"аттракцион зарегистрирован","LocationType":"площадка","geoData":{"coordinates":[37.358916661039,55.8452420538457],"type":"Point"},"geodata_center":{"type":"geometry","value":"010100000076932CFBF0AD42404E3C41E430EC4B40"}},{"ID":2326,"Name":"CAROUSEL DOUBLE DECK-PARK MODEL","Photo":"841e2768-1b2b-4091-92bd-391b79a1bb74","global_id":1060205212,"AdmArea":"Южный административный округ","District":"район Зябликово","Location":"Г. МОСКВА, ОРЕХОВЫЙ Б-Р, Д.24, СТР.1","RegistrationNumber":"77-0199","State":"аттракцион зарегистрирован","LocationType":"площадка","geoData":{"coordinates":[37.7428686608201,55.6138198586161],"type":"Point"},"geodata_center":{"type":"geometry","value":"010100000004B9FD5116DF42401C322DA691CE4B40"}},{"ID":2327,"Name":"CAROUSEL DOUBLE STOREY 10ME","Photo":"932f9a1e-69fd-49da-bd3f-1f15d27cebb0","global_id":1060205214,"AdmArea":"Восточный административный округ","District":"район Косино-Ухтомский","Location":"Г. МОСКВА, УЛ.СВЯТООЗЕРСКАЯ, Д.1","RegistrationNumber":"77-0200","State":"аттракцион зарегистрирован","LocationType":"площадка","geoData":{"coordinates":[37.8779587245061,55.7139421919491],"type":"Point"},"geodata_center":{"type":"geometry","value":"0101000000E67E94F360F04240F4D32E7562DB4B40"}},{"ID":2332,"Name":"5D КИНОТЕАТР","Photo":"62b6b179-a6b2-4f41-be4e-51f8dd6ced48","global_id":1060205224,"AdmArea":"Юго-Западный административный округ","District":"Обручевский район","Location":"ГАУК Г.МОСКВЫ УСАДЬБА ВОРОНЦОВО","RegistrationNumber":"77-0206","State":"аттракцион зарегистрирован","LocationType":"парк","geoData":{"coordinates":[37.5269883771502,55.6671731655052],"type":"Point"},"geodata_center":{"type":"geometry","value":"0101000000BD9DEA5A74C34240914E27EE65D54B40"}},{"ID":374,"Name":"RED BARON INTERACTIVE","Photo":"3817ea88-b6f7-4b82-a81e-fe38c4e202b1","global_id":1060227318,"AdmArea":"Восточный административный округ","District":"район Сокольники","Location":"ПАРК КУЛЬТУРЫ И ОТДЫХА «СОКОЛЬНИКИ»","RegistrationNumber":"77-0239","State":"аттракцион зарегистрирован","LocationType":"парк","geoData":{"coordinates":[37.6728119376838,55.7940324672837],"type":"Point"},"geodata_center":{"type":"geometry","value":"0101000000EA5A9AB31ED642400C791BDBA2E54B40"}},{"ID":375,"Name":"ДИНАМИЧЕСКИЙ ЛЕТАЮЩИЙ ТЕАТР НА 39 МЕСТ","Photo":"d808f129-8057-45a9-95e9-927d7b6696f8","global_id":1060227319,"AdmArea":"Центральный административный округ","District":"Тверской район","Location":"ГАУК Г. МОСКВЫ «ПАРК «ЗАРЯДЬЕ»","RegistrationNumber":"77-0100","State":"аттракцион зарегистрирован","LocationType":"парк","geoData":{"coordinates":[37.6278798645074,55.7510797606064],"type":"Point"},"geodata_center":{"type":"geometry","value":"010100000027F00D5E5ED04240F73EB06123E04B40"}},{"ID":376,"Name":"POLO NORD","Photo":"64fdfca9-bc6e-413f-bdad-90c6584c4908","global_id":1060227320,"AdmArea":"Восточный административный округ","District":"район Сокольники","Location":"ПАРК КУЛЬТУРЫ И ОТДЫХА «СОКОЛЬНИКИ»","RegistrationNumber":"77-0101","State":"аттракцион зарегистрирован","LocationType":"парк","geoData":{"coordinates":[37.6738340894183,55.7939975415897],"type":"Point"},"geodata_center":{"type":"geometry","value":"0101000000A67D083240D64240BE1D21B6A1E54B40"}},{"ID":377,"Name":"ВИРТУАЛЬНЫЙ СИМУЛЯТОР F-3","Photo":"86922b5e-f536-4370-8eb7-34cbffeaef50","global_id":1060227321,"AdmArea":"Центральный административный округ","District":"район Якиманка","Location":"ЦЕНТРАЛЬНЫЙ ПАРК КУЛЬТУРЫ И ОТДЫХА ИМЕНИ М. ГОРЬКОГО","RegistrationNumber":"77-0102","State":"аттракцион зарегистрирован","LocationType":"парк","geoData":{"coordinates":[37.6051254043989,55.7286096002071],"type":"Point"},"geodata_center":{"type":"geometry","value":"0101000000A4EFCEBF74CD42407138521443DD4B40"}},{"ID":378,"Name":"ВОЗДУШНЫЙ ШАР","Photo":"40eb6c3c-8f0c-49b9-af2c-93c0b26d3a5e","global_id":1060227322,"AdmArea":"Центральный административный округ","District":"район Якиманка","Location":"ЦЕНТРАЛЬНЫЙ ПАРК КУЛЬТУРЫ И ОТДЫХА ИМЕНИ М. ГОРЬКОГО","RegistrationNumber":"77-0103","State":"аттракцион зарегистрирован","LocationType":"парк","geoData":{"coordinates":[37.6052223474059,55.7284722292291],"type":"Point"},"geodata_center":{"type":"geometry","value":"0101000000517506ED77CD4240AA4AF8933EDD4B40"}},{"ID":379,"Name":"ТАНЦЕВАЛЬНЫЙ БАЛ","Photo":"34a2752f-5c24-41fa-ac7e-92bc38805cd8","global_id":1060227323,"AdmArea":"Центральный административный округ","District":"район Якиманка","Location":"ЦЕНТРАЛЬНЫЙ ПАРК КУЛЬТУРЫ И ОТДЫХА ИМЕНИ М. ГОРЬКОГО","RegistrationNumber":"77-0104","State":"аттракцион зарегистрирован","LocationType":"парк","geoData":{"coordinates":[37.604835928612,55.7290853327479],"type":"Point"},"geodata_center":{"type":"geometry","value":"0101000000D26A82436BCD424099120EAB52DD4B40"}},{"ID":380,"Name":"КАТАЛЬНАЯ ГОРА ЛОХНЕССКОЕ ЧУДОВИЩЕ","Photo":"3a379cd4-1033-47d2-9243-a2bead56eb05","global_id":1060227324,"AdmArea":"Северо-Западный административный округ","District":"район Северное Тушино","Location":"ПАРК КУЛЬТУРЫ И ОТДЫХА «СЕВЕРНОЕ ТУШИНО»","RegistrationNumber":"77-0105","State":"аттракцион зарегистрирован","LocationType":"парк","geoData":{"coordinates":[37.4506485964816,55.8614542483874],"type":"Point"},"geodata_center":{"type":"geometry","value":"010100000034F06BDAAEB9424077E9FF2144EE4B40"}},{"ID":381,"Name":"МИНИ-ДЖЕТ ПИРАТ","Photo":"c6da653e-68f4-4ae5-89fc-6db5b3d23f50","global_id":1060227325,"AdmArea":"Северо-Западный административный округ","District":"район Северное Тушино","Location":"ПАРК КУЛЬТУРЫ И ОТДЫХА «СЕВЕРНОЕ ТУШИНО»","RegistrationNumber":"77-0106","State":"аттракцион зарегистрирован","LocationType":"парк","geoData":{"coordinates":[37.4500187084543,55.8604963486392],"type":"Point"},"geodata_center":{"type":"geometry","value":"010100000022B389369AB94240CEDD8DBE24EE4B40"}},{"ID":383,"Name":"ОСЬМИНОГ .","Photo":"b2e6c4d1-ec5f-4a70-aaf9-ad4d6ea00966","global_id":1060227326,"AdmArea":"Северо-Западный административный округ","District":"район Северное Тушино","Location":"ПАРК КУЛЬТУРЫ И ОТДЫХА «СЕВЕРНОЕ ТУШИНО»","RegistrationNumber":"77-0107","State":"аттракцион зарегистрирован","LocationType":"парк","geoData":{"coordinates":[37.4514225065184,55.8615349177543],"type":"Point"},"geodata_center":{"type":"geometry","value":"01010000005D167336C8B94240F00EB4C646EE4B40"}},{"ID":384,"Name":"ЦЕПОЧНАЯ КАРУСЕЛЬ","Photo":"1d73b57f-0929-4d70-8802-2a582f184f69","global_id":1060227327,"AdmArea":"Северо-Западный административный округ","District":"район Северное Тушино","Location":"ПАРК КУЛЬТУРЫ И ОТДЫХА «СЕВЕРНОЕ ТУШИНО»","RegistrationNumber":"77-0108","State":"аттракцион зарегистрирован","LocationType":"парк","geoData":{"coordinates":[37.4506127117255,55.8615814736707],"type":"Point"},"geodata_center":{"type":"geometry","value":"0101000000F50266ADADB94240AA203E4D48EE4B40"}},{"ID":385,"Name":"ЛЕТАЮЩИЙ ДРАКОН","Photo":"fc17598e-09b3-4327-8bbe-a2d57ea03e99","global_id":1060227328,"AdmArea":"Северо-Западный административный округ","District":"район Северное Тушино","Location":"ПАРК КУЛЬТУРЫ И ОТДЫХА «СЕВЕРНОЕ ТУШИНО»","RegistrationNumber":"77-0109","State":"аттракцион зарегистрирован","LocationType":"парк","geoData":{"coordinates":[37.4515509409101,55.8616722531891],"type":"Point"},"geodata_center":{"type":"geometry","value":"0101000000E9D7D56BCCB94240B4A8C1464BEE4B40"}},{"ID":386,"Name":"КАЧЕЛИ ЛОДОЧКИ","Photo":"fcc9ad4d-2a52-4809-8659-f967ae142a0f","global_id":1060227329,"AdmArea":"Северо-Западный административный округ","District":"район Северное Тушино","Location":"ПАРК КУЛЬТУРЫ И ОТДЫХА «СЕВЕРНОЕ ТУШИНО»","RegistrationNumber":"77-0110","State":"аттракцион зарегистрирован","LocationType":"парк","geoData":{"coordinates":[37.4503998184211,55.860442928007],"type":"Point"},"geodata_center":{"type":"geometry","value":"01010000001B1F85B3A6B94240A6EE6DFE22EE4B40"}},{"ID":387,"Name":"ВИРТУАЛЬНАЯ РЕАЛЬНОСТЬ БОИНГ","Photo":"807e0e9d-6de2-4f7d-ac79-46099bb360f2","global_id":1060227330,"AdmArea":"Северо-Западный административный округ","District":"район Северное Тушино","Location":"ПАРК КУЛЬТУРЫ И ОТДЫХА «СЕВЕРНОЕ ТУШИНО»","RegistrationNumber":"77-0111","State":"аттракцион зарегистрирован","LocationType":"парк","geoData":{"coordinates":[37.4509337526272,55.8619566240228],"type":"Point"},"geodata_center":{"type":"geometry","value":"010100000025197C32B8B94240C95F3B9854EE4B40"}},{"ID":388,"Name":"КАЧЕЛИ ВИКИНГ","Photo":"45225d65-8430-4178-8bb3-5398de255f3f","global_id":1060227331,"AdmArea":"Северо-Западный административный округ","District":"район Северное Тушино","Location":"ПАРК КУЛЬТУРЫ И ОТДЫХА «СЕВЕРНОЕ ТУШИНО»","RegistrationNumber":"77-0112","State":"аттракцион зарегистрирован","LocationType":"парк","geoData":{"coordinates":[37.4520397092502,55.8612304539739],"type":"Point"},"geodata_center":{"type":"geometry","value":"01010000008BDCEB6FDCB942409411ADCC3CEE4B40"}},{"ID":389,"Name":"RED BARON 6","Photo":"499a9747-b36a-41f5-bffe-93c391b6c157","global_id":1060227332,"AdmArea":"Восточный административный округ","District":"район Измайлово","Location":"ПАРК КУЛЬТУРЫ И ОТДЫХА «ИЗМАЙЛОВСКИЙ»","RegistrationNumber":"77-0114","State":"аттракцион зарегистрирован","LocationType":"парк","geoData":{"coordinates":[37.7501516157839,55.7773162445684],"type":"Point"},"geodata_center":{"type":"geometry","value":"0101000000A76AD8F704E04240178944197FE34B40"}},{"ID":390,"Name":"КРУГОВОЙ ОБЗОР-М","Photo":"15ae42a9-69bd-40e2-a463-9e72e9306bb3","global_id":1060227333,"AdmArea":"Восточный административный округ","District":"район Измайлово","Location":"ПАРК КУЛЬТУРЫ И ОТДЫХА «ИЗМАЙЛОВСКИЙ»","RegistrationNumber":"77-2213","State":"аттракцион зарегистрирован","LocationType":"парк","geoData":{"coordinates":[37.7501202051043,55.7773982541457],"type":"Point"},"geodata_center":{"type":"geometry","value":"0101000000EC7E5AF003E04240FEC236C981E34B40"}},{"ID":391,"Name":"КОЛЕСО ОБОЗРЕНИЯ - 40","Photo":"9deb9de1-b87d-4d52-80e6-a59c5e86aacc","global_id":1060227334,"AdmArea":"Восточный административный округ","District":"район Измайлово","Location":"ПАРК КУЛЬТУРЫ И ОТДЫХА «ИЗМАЙЛОВСКИЙ»","RegistrationNumber":"77-0116","State":"регистрация аттракциона приостановлена","LocationType":"парк","geoData":{"coordinates":[37.7509298382883,55.7702576630849],"type":"Point"},"geodata_center":{"type":"geometry","value":"0101000000F6840C781EE04240B03898CD97E24B40"}},{"ID":392,"Name":"КАРУСЕЛЬ SAFARI","Photo":"848f7237-0c06-45b7-a410-0e0c35a18f5c","global_id":1060227335,"AdmArea":"Юго-Восточный административный округ","District":"район Кузьминки","Location":"ПАРК КУЛЬТУРЫ И ОТДЫХА «КУЗЬМИНКИ»","RegistrationNumber":"77-0117","State":"аттракцион зарегистрирован","LocationType":"парк","geoData":{"coordinates":[37.7686110669811,55.6949260191342],"type":"Point"},"geodata_center":{"type":"geometry","value":"01010000008703F2D861E2424018A9F655F3D84B40"}},{"ID":393,"Name":"FAMILY SWINGER","Photo":"0afdc880-1f2b-48d1-b02d-adf4ce8c3114","global_id":1060227336,"AdmArea":"Юго-Восточный административный округ","District":"район Кузьминки","Location":"ПАРК КУЛЬТУРЫ И ОТДЫХА «КУЗЬМИНКИ»","RegistrationNumber":"77-0118","State":"аттракцион зарегистрирован","LocationType":"парк","geoData":{"coordinates":[37.769614518403,55.6942296421779],"type":"Point"},"geodata_center":{"type":"geometry","value":"0101000000A38881BA82E24240AD885484DCD84B40"}},{"ID":394,"Name":"SPACE JET 6","Photo":"b88040d9-7c2b-4a4d-882f-da6a603faa0e","global_id":1060227337,"AdmArea":"Юго-Восточный административный округ","District":"район Кузьминки","Location":"ПАРК КУЛЬТУРЫ И ОТДЫХА «КУЗЬМИНКИ»","RegistrationNumber":"77-0119","State":"аттракцион зарегистрирован","LocationType":"парк","geoData":{"coordinates":[37.7698520432425,55.694340655972],"type":"Point"},"geodata_center":{"type":"geometry","value":"0101000000203E02838AE242406AD79427E0D84B40"}},{"ID":395,"Name":"КАРУСЕЛЬ КАЛИПСО","Photo":"ff40489b-9c79-4717-a543-11978b3e24dc","global_id":1060227338,"AdmArea":"Юго-Восточный административный округ","District":"район Кузьминки","Location":"ПАРК КУЛЬТУРЫ И ОТДЫХА «КУЗЬМИНКИ»","RegistrationNumber":"77-0120","State":"аттракцион зарегистрирован","LocationType":"парк","geoData":{"coordinates":[37.7685869645856,55.6953881670947],"type":"Point"},"geodata_center":{"type":"geometry","value":"01010000007A83C20E61E2424037D9BD7A02D94B40"}},{"ID":396,"Name":"MINI JET 6","Photo":"2c4270d7-210c-4eb4-b2ef-5d19d3881160","global_id":1060227339,"AdmArea":"Юго-Восточный административный округ","District":"район Кузьминки","Location":"ПАРК КУЛЬТУРЫ И ОТДЫХА «КУЗЬМИНКИ»","RegistrationNumber":"77-0121","State":"аттракцион зарегистрирован","LocationType":"парк","geoData":{"coordinates":[37.7685702395538,55.6946783182417],"type":"Point"},"geodata_center":{"type":"geometry","value":"010100000004C8758260E242404A0B1938EBD84B40"}},{"ID":397,"Name":"КАРУСЕЛЬ ЦЕПОЧНАЯ КЦ-1","Photo":"16957654-0ee9-4fdf-99cd-f38bfc71efed","global_id":1060227340,"AdmArea":"Юго-Восточный административный округ","District":"район Кузьминки","Location":"ПАРК КУЛЬТУРЫ И ОТДЫХА «КУЗЬМИНКИ»","RegistrationNumber":"77-0122","State":"аттракцион зарегистрирован","LocationType":"парк","geoData":{"coordinates":[37.7687131595479,55.6948571511512],"type":"Point"},"geodata_center":{"type":"geometry","value":"0101000000AD215C3165E2424001CB4114F1D84B40"}},{"ID":398,"Name":"CRAZY BUS","Photo":"2c37a69d-ad6a-467d-a5d9-5200ab6077ec","global_id":1060227341,"AdmArea":"Юго-Восточный административный округ","District":"район Кузьминки","Location":"ПАРК КУЛЬТУРЫ И ОТДЫХА «КУЗЬМИНКИ»","RegistrationNumber":"77-0123","State":"аттракцион зарегистрирован","LocationType":"парк","geoData":{"coordinates":[37.7690705790442,55.6950187714139],"type":"Point"},"geodata_center":{"type":"geometry","value":"0101000000BCA79CE770E2424010AA0660F6D84B40"}},{"ID":399,"Name":"КОЛОБОК","Photo":"6b248275-0dad-46ea-b8dc-f6b153e94a81","global_id":1060227342,"AdmArea":"Юго-Восточный административный округ","District":"район Кузьминки","Location":"ПАРК КУЛЬТУРЫ И ОТДЫХА «КУЗЬМИНКИ»","RegistrationNumber":"77-0124","State":"аттракцион зарегистрирован","LocationType":"парк","geoData":{"coordinates":[37.7691411232515,55.6949315553746],"type":"Point"},"geodata_center":{"type":"geometry","value":"0101000000DF2F613773E242406DA56784F3D84B40"}},{"ID":400,"Name":"MAGIC BIKES 6","Photo":"382c3bb0-ecba-46ba-9003-63a26931251d","global_id":1060227941,"AdmArea":"Юго-Восточный административный округ","District":"район Кузьминки","Location":"ПАРК КУЛЬТУРЫ И ОТДЫХА «КУЗЬМИНКИ»","RegistrationNumber":"77-0125","State":"аттракцион зарегистрирован","LocationType":"парк","geoData":{"coordinates":[37.7682416865916,55.6946622939226],"type":"Point"},"geodata_center":{"type":"geometry","value":"0101000000DAAA5BBE55E24240BA14ADB1EAD84B40"}},{"ID":401,"Name":"WORLD TRIP","Photo":"12318ff5-717a-4e37-a22f-de0223455df5","global_id":1060227942,"AdmArea":"Юго-Восточный административный округ","District":"район Кузьминки","Location":"ПАРК КУЛЬТУРЫ И ОТДЫХА «КУЗЬМИНКИ»","RegistrationNumber":"77-0126","State":"аттракцион зарегистрирован","LocationType":"парк","geoData":{"coordinates":[37.7687632599832,55.6951600822165],"type":"Point"},"geodata_center":{"type":"geometry","value":"01010000003CFFA1D566E24240604D6D01FBD84B40"}},{"ID":402,"Name":"КАТАЛЬНАЯ ГОРА ТОРНАДО","Photo":"4ee5dfd1-3b6e-438f-949b-9e7a49a5a11f","global_id":1060227943,"AdmArea":"Юго-Восточный административный округ","District":"район Кузьминки","Location":"ПАРК КУЛЬТУРЫ И ОТДЫХА «КУЗЬМИНКИ»","RegistrationNumber":"77-0127","State":"аттракцион зарегистрирован","LocationType":"парк","geoData":{"coordinates":[37.7682085191783,55.6946300202355],"type":"Point"},"geodata_center":{"type":"geometry","value":"0101000000893021A854E242409CDDF1A2E9D84B40"}},{"ID":404,"Name":"MINI JET 6","Photo":"931b5358-8f0b-4d82-903f-e9b86811918e","global_id":1060227945,"AdmArea":"Юго-Западный административный округ","District":"Обручевский район","Location":"ГАУК Г.МОСКВЫ УСАДЬБА ВОРОНЦОВО","RegistrationNumber":"77-2215","State":"аттракцион зарегистрирован","LocationType":"парк","geoData":{"coordinates":[37.5270577554385,55.6681207807715],"type":"Point"},"geodata_center":{"type":"geometry","value":"01010000000E5BE7A076C34240849853FB84D54B40"}},{"ID":405,"Name":"АВТОДРОМ","Photo":"4541e23d-8777-4910-83df-f8516d3fcdb5","global_id":1060227946,"AdmArea":"Юго-Западный административный округ","District":"Обручевский район","Location":"ГАУК Г.МОСКВЫ УСАДЬБА ВОРОНЦОВО","RegistrationNumber":"77-2218","State":"аттракцион зарегистрирован","LocationType":"парк","geoData":{"coordinates":[37.5272768378353,55.6681233896791],"type":"Point"},"geodata_center":{"type":"geometry","value":"01010000007138B3CE7DC34240AA2E361185D54B40"}},{"ID":406,"Name":"CIRCUS SWING","Photo":"bbc3a43d-822a-4d20-8b88-c06eb1bb6f1e","global_id":1060227947,"AdmArea":"Юго-Западный административный округ","District":"Обручевский район","Location":"ГАУК Г.МОСКВЫ УСАДЬБА ВОРОНЦОВО","RegistrationNumber":"77-2217","State":"аттракцион зарегистрирован","LocationType":"парк","geoData":{"coordinates":[37.5274230027136,55.6685426127576],"type":"Point"},"geodata_center":{"type":"geometry","value":"010100000016E8D19882C342405EE3E8CD92D54B40"}},{"ID":408,"Name":"CHOCO CUPS","Photo":"82d3bfd8-c598-49af-b59f-089273ce555d","global_id":1060227949,"AdmArea":"Юго-Западный административный округ","District":"Обручевский район","Location":"ГАУК Г.МОСКВЫ УСАДЬБА ВОРОНЦОВО","RegistrationNumber":"77-2221","State":"аттракцион зарегистрирован","LocationType":"парк","geoData":{"coordinates":[37.5270929734091,55.6676452834589],"type":"Point"},"geodata_center":{"type":"geometry","value":"01010000002B5F55C877C3424075E4906675D54B40"}},{"ID":409,"Name":"ДЕТСКИЙ АВТОДРОМ","Photo":"8250582a-1445-4d99-90d7-bed54a7a3468","global_id":1060227950,"AdmArea":"Северо-Западный административный округ","District":"район Северное Тушино","Location":"ПАРК КУЛЬТУРЫ И ОТДЫХА «СЕВЕРНОЕ ТУШИНО»","RegistrationNumber":"77-0134","State":"аттракцион зарегистрирован","LocationType":"парк","geoData":{"coordinates":[37.4507805045313,55.8607243472819],"type":"Point"},"geodata_center":{"type":"geometry","value":"01010000006D51F22CB3B942402B3925372CEE4B40"}},{"ID":410,"Name":"БОЛЬШОЙ АВТОДРОМ","Photo":"7a8d7fa5-4800-40f3-9159-afdedb77b8ea","global_id":1060227951,"AdmArea":"Северо-Западный административный округ","District":"район Северное Тушино","Location":"ПАРК КУЛЬТУРЫ И ОТДЫХА «СЕВЕРНОЕ ТУШИНО»","RegistrationNumber":"77-0135","State":"аттракцион зарегистрирован","LocationType":"парк","geoData":{"coordinates":[37.4501019927855,55.8605499569926],"type":"Point"},"geodata_center":{"type":"geometry","value":"010100000064702DF19CB94240BEED408026EE4B40"}},{"ID":411,"Name":"MERRY GO ROUND","Photo":"8fc58c32-c355-4649-b3b4-a7942e4763f8","global_id":1060227952,"AdmArea":"Центральный административный округ","District":"район Якиманка","Location":"ЦЕНТРАЛЬНЫЙ ПАРК КУЛЬТУРЫ И ОТДЫХА ИМЕНИ М. ГОРЬКОГО","RegistrationNumber":"77-0136","State":"аттракцион зарегистрирован","LocationType":"парк","geoData":{"coordinates":[37.604404789165,55.7289551091305],"type":"Point"},"geodata_center":{"type":"geometry","value":"01010000003281D9225DCD4240D4FBA8664EDD4B40"}},{"ID":412,"Name":"ЭНТЕРПРАЙЗ .","Photo":"57b20417-d953-48b3-9075-ff70ea567f1a","global_id":1060227953,"AdmArea":"Западный административный округ","District":"район Дорогомилово","Location":"ПАРК «ПОБЕДЫ» НА ПОКЛОННОЙ ГОРЕ","RegistrationNumber":"77-0137","State":"регистрация аттракциона приостановлена","LocationType":"парк","geoData":{"coordinates":[37.5142505860911,55.7311484143137],"type":"Point"},"geodata_center":{"type":"geometry","value":"0101000000E69A94F6D2C14240F0FF6F4596DD4B40"}},{"ID":413,"Name":"ГУСЕНИЦА .","Photo":"007b6e9e-7007-4c00-989f-c86cd35b5a22","global_id":1060227954,"AdmArea":"Западный административный округ","District":"район Крылатское","Location":"ПАРК «SKAZKA»","RegistrationNumber":"77-0138","State":"аттракцион зарегистрирован","LocationType":"парк","geoData":{"coordinates":[37.4329217976599,55.771923405623],"type":"Point"},"geodata_center":{"type":"geometry","value":"0101000000665641FB69B742407415DB62CEE24B40"}},{"ID":414,"Name":"МИНИ ДЖЕТ","Photo":"b1802c9c-879c-4691-ad2b-03b315ab9078","global_id":1060227955,"AdmArea":"Южный административный округ","District":"район Нагатинский Затон","Location":"УСАДЬБА «КОЛОМЕНСКОЕ»","RegistrationNumber":"77-0139","State":"аттракцион зарегистрирован","LocationType":"парк","geoData":{"coordinates":[37.6721030145643,55.6736553541004],"type":"Point"},"geodata_center":{"type":"geometry","value":"01010000005C8CB97807D642407551B1563AD64B40"}},{"ID":415,"Name":"ДРАКОН","Photo":"1e43db0f-1af5-46e6-9b51-08ff02504ebd","global_id":1060227956,"AdmArea":"Южный административный округ","District":"район Нагатинский Затон","Location":"УСАДЬБА «КОЛОМЕНСКОЕ»","RegistrationNumber":"77-0140","State":"аттракцион зарегистрирован","LocationType":"парк","geoData":{"coordinates":[37.671792078417,55.6730128738776],"type":"Point"},"geodata_center":{"type":"geometry","value":"0101000000A4416748FDD54240B28B2D4925D64B40"}},{"ID":416,"Name":"ЛАДЬЯ","Photo":"2a057d5e-9fc4-4e5a-ba27-1ed247b4a3e0","global_id":1060227957,"AdmArea":"Южный административный округ","District":"район Нагатинский Затон","Location":"УСАДЬБА «КОЛОМЕНСКОЕ»","RegistrationNumber":"77-0141","State":"аттракцион зарегистрирован","LocationType":"парк","geoData":{"coordinates":[37.6721663317496,55.67350123338],"type":"Point"},"geodata_center":{"type":"geometry","value":"01010000001B2BDE8B09D642406597D54935D64B40"}},{"ID":417,"Name":"САМОЛЕТ","Photo":"9d00ec9c-8501-40e4-9f39-70dbdc3ff702","global_id":1060227958,"AdmArea":"Южный административный округ","District":"район Нагатинский Затон","Location":"УСАДЬБА «КОЛОМЕНСКОЕ»","RegistrationNumber":"77-0142","State":"аттракцион зарегистрирован","LocationType":"парк","geoData":{"coordinates":[37.6722460470423,55.6738426705521],"type":"Point"},"geodata_center":{"type":"geometry","value":"0101000000B97491280CD64240D955047A40D64B40"}},{"ID":418,"Name":"ЦЕПОЧНАЯ КАРУСЕЛЬ","Photo":"3e342be2-19bf-4282-9798-95a7d77bb097","global_id":1060227959,"AdmArea":"Южный административный округ","District":"район Нагатинский Затон","Location":"УСАДЬБА «КОЛОМЕНСКОЕ»","RegistrationNumber":"77-0143","State":"аттракцион зарегистрирован","LocationType":"парк","geoData":{"coordinates":[37.6720667274173,55.6734879789643],"type":"Point"},"geodata_center":{"type":"geometry","value":"01010000005E7E534806D6424052F3A5DA34D64B40"}},{"ID":419,"Name":"КАРУСЕЛЬ СВАДЕБНАЯ","Photo":"d0c34302-2ab1-4ab8-943a-49de15bdf72a","global_id":1060227960,"AdmArea":"Южный административный округ","District":"район Нагатинский Затон","Location":"УСАДЬБА «КОЛОМЕНСКОЕ»","RegistrationNumber":"77-0144","State":"аттракцион зарегистрирован","LocationType":"парк","geoData":{"coordinates":[37.6720784016574,55.6734477803685],"type":"Point"},"geodata_center":{"type":"geometry","value":"0101000000B3BB41AA06D64240891F708933D64B40"}},{"ID":420,"Name":"АВТОДРОМ","Photo":"81a537b7-0411-40f9-b8fa-ee1b03dfaefe","global_id":1060227961,"AdmArea":"Южный административный округ","District":"район Нагатинский Затон","Location":"УСАДЬБА «КОЛОМЕНСКОЕ»","RegistrationNumber":"77-0145","State":"аттракцион зарегистрирован","LocationType":"парк","geoData":{"coordinates":[37.6724958560746,55.6740566249649],"type":"Point"},"geodata_center":{"type":"geometry","value":"01010000009A441E5814D6424034F0CB7C47D64B40"}},{"ID":421,"Name":"КОЛЕСО ОБОЗРЕНИЯ ВЫСОТОЙ 37 МЕТРОВ","Photo":"ace75f9c-e434-4039-8cfb-9958e287f4ea","global_id":1060227962,"AdmArea":"Восточный административный округ","District":"район Сокольники","Location":"ПАРК КУЛЬТУРЫ И ОТДЫХА «СОКОЛЬНИКИ»","RegistrationNumber":"77-0146","State":"аттракцион зарегистрирован","LocationType":"парк","geoData":{"coordinates":[37.6739539169894,55.7942116731391],"type":"Point"},"geodata_center":{"type":"geometry","value":"0101000000883D381F44D64240EC1D65BAA8E54B40"}},{"ID":423,"Name":"КАНОЭ РИВЕР","Photo":"2a935034-d2fa-4476-9305-84c09a47047d","global_id":1060227963,"AdmArea":"Северо-Восточный административный округ","District":"район Лианозово","Location":"ГАУК Г. МОСКВЫ ПАРК КУЛЬТУРЫ И ОТДЫХА «ЛИАНОЗОВСКИЙ»","RegistrationNumber":"77-0148","State":"регистрация аттракциона приостановлена","LocationType":"парк","geoData":{"coordinates":[37.5709509738348,55.9004558622011],"type":"Point"},"geodata_center":{"type":"geometry","value":"0101000000B91EE8EB14C942409BD23F2342F34B40"}},{"ID":424,"Name":"ОРБИТА - 420","Photo":"6bc54cf0-f826-43fa-be52-34d08f5c582c","global_id":1060227964,"AdmArea":"Северо-Восточный административный округ","District":"район Лианозово","Location":"ГАУК Г. МОСКВЫ ПАРК КУЛЬТУРЫ И ОТДЫХА «ЛИАНОЗОВСКИЙ»","RegistrationNumber":"77-0149","State":"аттракцион зарегистрирован","LocationType":"парк","geoData":{"coordinates":[37.5725056935683,55.9000196650644],"type":"Point"},"geodata_center":{"type":"geometry","value":"01010000002753D7DD47C94240A99A29D833F34B40"}},{"ID":425,"Name":"АВТОДРОМ","Photo":"cf497ea8-4385-46a9-87d3-1bdcd994584d","global_id":1060227965,"AdmArea":"Северо-Восточный административный округ","District":"район Лианозово","Location":"ГАУК Г. МОСКВЫ ПАРК КУЛЬТУРЫ И ОТДЫХА «ЛИАНОЗОВСКИЙ»","RegistrationNumber":"77-0150","State":"аттракцион зарегистрирован","LocationType":"парк","geoData":{"coordinates":[37.5733127489523,55.9000694127541],"type":"Point"},"geodata_center":{"type":"geometry","value":"0101000000A590E94F62C942404FF4797935F34B40"}},{"ID":426,"Name":"СКАЗОЧНЫЙ ПОЕЗД","Photo":"d090d94e-24d9-4615-a921-68657a13fa08","global_id":1060227966,"AdmArea":"Северо-Восточный административный округ","District":"район Лианозово","Location":"ГАУК Г. МОСКВЫ ПАРК КУЛЬТУРЫ И ОТДЫХА «ЛИАНОЗОВСКИЙ»","RegistrationNumber":"77-0151","State":"аттракцион зарегистрирован","LocationType":"парк","geoData":{"coordinates":[37.5717610739947,55.9002143082623],"type":"Point"},"geodata_center":{"type":"geometry","value":"01010000006CF784772FC942405DB0F2383AF34B40"}},{"ID":427,"Name":"ПИРАТ","Photo":"5d14b5cc-651d-465f-b6ce-30acd444a9ec","global_id":1060227967,"AdmArea":"Северо-Восточный административный округ","District":"район Лианозово","Location":"ГАУК Г. МОСКВЫ ПАРК КУЛЬТУРЫ И ОТДЫХА «ЛИАНОЗОВСКИЙ»","RegistrationNumber":"77-0152","State":"регистрация аттракциона приостановлена","LocationType":"парк","geoData":{"coordinates":[37.5712860486688,55.8998763968428],"type":"Point"},"geodata_center":{"type":"geometry","value":"0101000000CBD8B7E61FC94240F17057262FF34B40"}},{"ID":428,"Name":"МИНИ ДЖЕТ","Photo":"941efc7a-e9e6-4c6e-aa85-8039632dc030","global_id":1060227968,"AdmArea":"Северо-Восточный административный округ","District":"район Лианозово","Location":"ГАУК Г. МОСКВЫ ПАРК КУЛЬТУРЫ И ОТДЫХА «ЛИАНОЗОВСКИЙ»","RegistrationNumber":"77-0153","State":"регистрация аттракциона приостановлена","LocationType":"парк","geoData":{"coordinates":[37.5723811112733,55.9003277904144],"type":"Point"},"geodata_center":{"type":"geometry","value":"010100000027E2C4C843C942403BC1E7F03DF34B40"}},{"ID":429,"Name":"РАЛЛИ","Photo":"814566c9-f54c-4b13-978b-75da2e9078d1","global_id":1060227969,"AdmArea":"Северо-Восточный административный округ","District":"район Лианозово","Location":"ГАУК Г. МОСКВЫ ПАРК КУЛЬТУРЫ И ОТДЫХА «ЛИАНОЗОВСКИЙ»","RegistrationNumber":"77-0154","State":"аттракцион зарегистрирован","LocationType":"парк","geoData":{"coordinates":[37.570980546894,55.9003319546698],"type":"Point"},"geodata_center":{"type":"geometry","value":"0101000000E7C7FBE315C94240D86CD6133EF34B40"}},{"ID":430,"Name":"КАРУСЕЛЬ СВАДЕБНАЯ С ЛОШАДКАМИ","Photo":"c80b2dff-5b83-4db9-a71b-61054f80ded8","global_id":1060227970,"AdmArea":"Северо-Восточный административный округ","District":"район Лианозово","Location":"ГАУК Г. МОСКВЫ ПАРК КУЛЬТУРЫ И ОТДЫХА «ЛИАНОЗОВСКИЙ»","RegistrationNumber":"77-0155","State":"аттракцион зарегистрирован","LocationType":"парк","geoData":{"coordinates":[37.5731026341687,55.9005282673591],"type":"Point"},"geodata_center":{"type":"geometry","value":"0101000000C480576D5BC9424022B7A08244F34B40"}},{"ID":431,"Name":"КОЛЕСО ОБОЗРЕНИЯ","Photo":"d306d131-9bcc-4cd9-bfed-383323bfab0f","global_id":1060227971,"AdmArea":"Северо-Восточный административный округ","District":"район Лианозово","Location":"ГАУК Г. МОСКВЫ ПАРК КУЛЬТУРЫ И ОТДЫХА «ЛИАНОЗОВСКИЙ»","RegistrationNumber":"77-0156","State":"аттракцион зарегистрирован","LocationType":"парк","geoData":{"coordinates":[37.5711774436736,55.9004523830167],"type":"Point"},"geodata_center":{"type":"geometry","value":"01010000003B65AC571CC94240B854100642F34B40"}},{"ID":432,"Name":"КАРУСЕЛЬ","Photo":"29e2c16f-8d4b-4abb-b0b2-dfc7cc69abb6","global_id":1060227972,"AdmArea":"Южный административный округ","District":"район Бирюлёво Восточное","Location":"УСАДЬБА «ЦАРИЦЫНО»","RegistrationNumber":"77-0157","State":"аттракцион зарегистрирован","LocationType":"парк","geoData":{"coordinates":[37.6744368460934,55.6194124885744],"type":"Point"},"geodata_center":{"type":"geometry","value":"01010000001C9852F253D6424098948EE848CF4B40"}},{"ID":433,"Name":"КОСМИЧЕСКАЯ БАШНЯ","Photo":"8dde9458-b64c-4117-9324-6ac24e6d0728","global_id":1060227973,"AdmArea":"Южный административный округ","District":"район Бирюлёво Восточное","Location":"УСАДЬБА «ЦАРИЦЫНО»","RegistrationNumber":"77-0158","State":"аттракцион зарегистрирован","LocationType":"парк","geoData":{"coordinates":[37.6746023629513,55.619375418991],"type":"Point"},"geodata_center":{"type":"geometry","value":"01010000001357C75E59D642409C4198B147CF4B40"}},{"ID":434,"Name":"МИНИ - ДЖЕТ","Photo":"4896cff6-76d1-4a74-a102-cc0ff569eb8d","global_id":1060227974,"AdmArea":"Южный административный округ","District":"район Бирюлёво Восточное","Location":"УСАДЬБА «ЦАРИЦЫНО»","RegistrationNumber":"77-0159","State":"аттракцион зарегистрирован","LocationType":"парк","geoData":{"coordinates":[37.674371861366,55.6194360208526],"type":"Point"},"geodata_center":{"type":"geometry","value":"010100000069F430D151D6424059C3F5AD49CF4B40"}},{"ID":435,"Name":"ВИРТУАЛЬНЫЙ СИМУЛЯТОР F-3","Photo":"340f8a6d-a239-4051-8f56-fe56e5854a87","global_id":1060227975,"AdmArea":"Южный административный округ","District":"район Бирюлёво Восточное","Location":"УСАДЬБА «ЦАРИЦЫНО»","RegistrationNumber":"77-0160","State":"аттракцион зарегистрирован","LocationType":"парк","geoData":{"coordinates":[37.6746342708859,55.6193653279081],"type":"Point"},"geodata_center":{"type":"geometry","value":"0101000000A31B716A5AD642401AD2F15C47CF4B40"}},{"ID":436,"Name":"ВЕРТОЛЕТЫ","Photo":"89e5ee0a-cf01-4ee3-84ec-d4235435a77f","global_id":1060227976,"AdmArea":"Северо-Восточный административный округ","District":"Лосиноостровский район","Location":"ПАРК КУЛЬТУРЫ И ОТДЫХА «БАБУШКИНСКИЙ»","RegistrationNumber":"77-0161","State":"аттракцион зарегистрирован","LocationType":"парк","geoData":{"coordinates":[37.6837875769363,55.8684656393753],"type":"Point"},"geodata_center":{"type":"geometry","value":"0101000000242DF05986D742408A68CFE129EF4B40"}},{"ID":437,"Name":"КОЛЕСО ОБОЗРЕНИЯ","Photo":"bca71ac1-e9e8-4c3f-b289-24e5e20cd2d2","global_id":1060227977,"AdmArea":"Северо-Восточный административный округ","District":"Лосиноостровский район","Location":"ПАРК КУЛЬТУРЫ И ОТДЫХА «БАБУШКИНСКИЙ»","RegistrationNumber":"77-0162","State":"аттракцион зарегистрирован","LocationType":"парк","geoData":{"coordinates":[37.6833971835241,55.8685197964226],"type":"Point"},"geodata_center":{"type":"geometry","value":"01010000000FB5148F79D7424022C81CA82BEF4B40"}},{"ID":438,"Name":"КАРУСЕЛЬ САМОЛЕТЫ","Photo":"11d0c3f8-202f-4a16-a456-5a9181a1bf19","global_id":1060227978,"AdmArea":"Северо-Восточный административный округ","District":"Лосиноостровский район","Location":"ПАРК КУЛЬТУРЫ И ОТДЫХА «БАБУШКИНСКИЙ»","RegistrationNumber":"77-0163","State":"аттракцион зарегистрирован","LocationType":"парк","geoData":{"coordinates":[37.6828629639402,55.8676628236693],"type":"Point"},"geodata_center":{"type":"geometry","value":"0101000000EAE2B80D68D74240A9CE4D930FEF4B40"}},{"ID":439,"Name":"ДРАКОНЫ","Photo":"ba5f4158-fc5a-495b-9da5-20e6a17445e5","global_id":1060227979,"AdmArea":"Северо-Восточный административный округ","District":"Лосиноостровский район","Location":"ПАРК КУЛЬТУРЫ И ОТДЫХА «БАБУШКИНСКИЙ»","RegistrationNumber":"77-0164","State":"аттракцион зарегистрирован","LocationType":"парк","geoData":{"coordinates":[37.6824864361003,55.8673291148658],"type":"Point"},"geodata_center":{"type":"geometry","value":"0101000000D3812DB75BD74240D29BF3A304EF4B40"}},{"ID":440,"Name":"КОРАБЛЬ","Photo":"002bb83b-666f-4017-aedf-abe6e71cba95","global_id":1060227980,"AdmArea":"Северо-Восточный административный округ","District":"Лосиноостровский район","Location":"ПАРК КУЛЬТУРЫ И ОТДЫХА «БАБУШКИНСКИЙ»","RegistrationNumber":"77-0165","State":"аттракцион зарегистрирован","LocationType":"парк","geoData":{"coordinates":[37.683908330229,55.8683114319295],"type":"Point"},"geodata_center":{"type":"geometry","value":"0101000000DAE5E34E8AD74240AB7039D424EF4B40"}},{"ID":441,"Name":"АВТОДРОМ","Photo":"fd04c8a3-728e-442f-a6e1-bc7d631eca56","global_id":1060227981,"AdmArea":"Северо-Восточный административный округ","District":"Лосиноостровский район","Location":"ПАРК КУЛЬТУРЫ И ОТДЫХА «БАБУШКИНСКИЙ»","RegistrationNumber":"77-0166","State":"аттракцион зарегистрирован","LocationType":"парк","geoData":{"coordinates":[37.6833989572194,55.8681380745696],"type":"Point"},"geodata_center":{"type":"geometry","value":"010100000063B0F59D79D742402858FF251FEF4B40"}},{"ID":442,"Name":"BRAKE DANCE","Photo":"a9c49922-0ac5-49cc-8a28-176a06ac72ab","global_id":1060227982,"AdmArea":"Юго-Восточный административный округ","District":"район Кузьминки","Location":"ПАРК КУЛЬТУРЫ И ОТДЫХА «КУЗЬМИНКИ»","RegistrationNumber":"77-0167","State":"аттракцион зарегистрирован","LocationType":"парк","geoData":{"coordinates":[37.7687335342658,55.6953208760505],"type":"Point"},"geodata_center":{"type":"geometry","value":"01010000004A8146DC65E242407A6E434600D94B40"}},{"ID":447,"Name":"5D КИНОТЕАТР","Photo":"e6c85986-7580-49ff-9451-553c8bbd4cc8","global_id":1060227985,"AdmArea":"Западный административный округ","District":"район Филёвский Парк","Location":"ПАРК КУЛЬТУРЫ И ОТДЫХА «ФИЛИ»","RegistrationNumber":"77-0172","State":"аттракцион зарегистрирован","LocationType":"парк","geoData":{"coordinates":[37.489775909817,55.7469822217007],"type":"Point"},"geodata_center":{"type":"geometry","value":"010100000030841DFAB0BE4240F0720A1D9DDF4B40"}},{"ID":448,"Name":"СОЛНЫШКО .","Photo":"8dc20963-3b3b-4018-b080-ef5b9ddfd140","global_id":1060227986,"AdmArea":"Западный административный округ","District":"район Филёвский Парк","Location":"ПАРК КУЛЬТУРЫ И ОТДЫХА «ФИЛИ»","RegistrationNumber":"77-0173","State":"аттракцион зарегистрирован","LocationType":"парк","geoData":{"coordinates":[37.4902412584129,55.7472679957692],"type":"Point"},"geodata_center":{"type":"geometry","value":"01010000003C04BE39C0BE42408E96497AA6DF4B40"}},{"ID":449,"Name":"МИНИ- ПОЛИП","Photo":"f08e1819-e6b0-4ae1-8630-cd1561c1252a","global_id":1060227987,"AdmArea":"Западный административный округ","District":"район Филёвский Парк","Location":"ПАРК КУЛЬТУРЫ И ОТДЫХА «ФИЛИ»","RegistrationNumber":"77-0174","State":"аттракцион зарегистрирован","LocationType":"парк","geoData":{"coordinates":[37.4903932578916,55.7471679996877],"type":"Point"},"geodata_center":{"type":"geometry","value":"01010000005D69CE34C5BE424060A37533A3DF4B40"}},{"ID":450,"Name":"СУМАСШЕДШИЙ ПИЛОТ","Photo":"cc5a83cb-842f-472c-829e-84a3273f603b","global_id":1060227988,"AdmArea":"Западный административный округ","District":"район Филёвский Парк","Location":"ПАРК КУЛЬТУРЫ И ОТДЫХА «ФИЛИ»","RegistrationNumber":"77-0175","State":"аттракцион зарегистрирован","LocationType":"парк","geoData":{"coordinates":[37.4902950414045,55.7474394418764],"type":"Point"},"geodata_center":{"type":"geometry","value":"01010000009B1CE8FCC1BE4240C74C7B18ACDF4B40"}},{"ID":451,"Name":"ПАДАЮЩАЯ ЗВЕЗДА","Photo":"b3e988cc-04f6-4bc8-8952-17e1a644c543","global_id":1060227989,"AdmArea":"Западный административный округ","District":"район Филёвский Парк","Location":"ПАРК КУЛЬТУРЫ И ОТДЫХА «ФИЛИ»","RegistrationNumber":"77-0176","State":"аттракцион зарегистрирован","LocationType":"парк","geoData":{"coordinates":[37.4900133066957,55.74722511732],"type":"Point"},"geodata_center":{"type":"geometry","value":"0101000000756E8BC1B8BE4240CCD19812A5DF4B40"}},{"ID":452,"Name":"ТИГРИНАЯ СТРАНА 2","Photo":"b32d171e-3dda-49c4-a017-87fc079c83d6","global_id":1060227990,"AdmArea":"Западный административный округ","District":"район Филёвский Парк","Location":"ПАРК КУЛЬТУРЫ И ОТДЫХА «ФИЛИ»","RegistrationNumber":"77-0177","State":"аттракцион зарегистрирован","LocationType":"парк","geoData":{"coordinates":[37.4898803643469,55.7470893813624],"type":"Point"},"geodata_center":{"type":"geometry","value":"01010000004DE95766B4BE4240FC11F69FA0DF4B40"}},{"ID":455,"Name":"БАССЕЙН С ЭЛЕКТРОЛОДКАМИ","Photo":"26a8e20e-3991-4b82-be82-4f708a5fd50f","global_id":1060227991,"AdmArea":"Восточный административный округ","District":"район Измайлово","Location":"ПАРК КУЛЬТУРЫ И ОТДЫХА «ИЗМАЙЛОВСКИЙ»","RegistrationNumber":"77-0180","State":"регистрация аттракциона приостановлена","LocationType":"парк","geoData":{"coordinates":[37.7501276346749,55.7774451176002],"type":"Point"},"geodata_center":{"type":"geometry","value":"01010000009060AD2E04E042408843555283E34B40"}},{"ID":2329,"Name":"КЕНГУРУ","Photo":"ad804242-f76a-4d46-8f0d-ae5760f354db","global_id":1060227998,"AdmArea":"Западный административный округ","District":"район Филёвский Парк","Location":"ПАРК КУЛЬТУРЫ И ОТДЫХА «ФИЛИ»","RegistrationNumber":"77-0203","State":"аттракцион зарегистрирован","LocationType":"парк","geoData":{"coordinates":[37.4907035001892,55.7473394654877],"type":"Point"},"geodata_center":{"type":"geometry","value":"01010000002FAC4E5FCFBE4240D7A3D1D1A8DF4B40"}},{"ID":2330,"Name":"ЛЕТАЮЩАЯ ФЕРМА","Photo":"fcf02ac8-b230-4a6f-b729-7c932da9d6c3","global_id":1060227999,"AdmArea":"Западный административный округ","District":"район Филёвский Парк","Location":"ПАРК КУЛЬТУРЫ И ОТДЫХА «ФИЛИ»","RegistrationNumber":"77-0204","State":"аттракцион зарегистрирован","LocationType":"парк","geoData":{"coordinates":[37.4903172424297,55.7472822883463],"type":"Point"},"geodata_center":{"type":"geometry","value":"0101000000447324B7C2BE4240E3A92EF2A6DF4B40"}},{"ID":1001,"Name":"CAROUSEL DOUBLE STOREY 10MEH","Photo":"df6a9d4a-b33a-4623-85b2-24fb7113c243","global_id":1060239834,"AdmArea":"Зеленоградский административный округ","District":"район Крюково","Location":"Г. ЗЕЛЕНОГРАД, 16 МКР","RegistrationNumber":"77-0299","State":"аттракцион зарегистрирован","LocationType":"площадка","geoData":{"coordinates":[37.1541808892432,55.9766242537823],"type":"Point"},"geodata_center":{"type":"geometry","value":"0101000000E27B0A33BC934240D33C070602FD4B40"}},{"ID":453,"Name":"ПОЕЗД ДЛЯ ТУРИСТИЧЕСКИХ ПОЕЗДОК","Photo":"40e1a35d-6c07-4029-9cf7-851cb65b1838","global_id":1060262913,"AdmArea":"Северо-Восточный административный округ","District":"Останкинский район","Location":"«ВДНХ»","RegistrationNumber":"77-0178","State":"аттракцион зарегистрирован","LocationType":"парк","geoData":{"coordinates":[37.6378770845009,55.8275235439805],"type":"Point"},"geodata_center":{"type":"geometry","value":"01010000004B66D0F4A5D1424080089F4AECE94B40"}},{"ID":454,"Name":"ПОЕЗД ДЛЯ ТУРИСТИЧЕСКИХ ПОЕЗДОК","Photo":"9424e887-d3ce-4ebc-a15e-f8f34f3ab357","global_id":1060278207,"AdmArea":"Северо-Восточный административный округ","District":"Останкинский район","Location":"«ВДНХ»","RegistrationNumber":"77-0179","State":"аттракцион зарегистрирован","LocationType":"парк","geoData":{"coordinates":[37.635283994849,55.8263156302322],"type":"Point"},"geodata_center":{"type":"geometry","value":"010100000042C666FC50D14240AE02E8B5C4E94B40"}},{"ID":1111,"Name":"КОМБИНИРОВАННАЯ ЗИМНЯЯ ГОРКА","Photo":"3e92c844-c23e-4d69-b840-cfd65ce6f984","global_id":1089475107,"AdmArea":"Северо-Восточный административный округ","District":"Останкинский район","Location":"ВДНХ","RegistrationNumber":"77-0269","State":"аттракцион зарегистрирован","LocationType":"парк","geoData":{"coordinates":[37.6356292057701,55.8256884206791],"type":"Point"},"geodata_center":{"type":"geometry","value":"010100000022953D4C5CD1424055C07D28B0E94B40"}},{"ID":1112,"Name":"КОМБИНИРОВАННАЯ ЗИМНЯЯ ГОРКА","Photo":"b7638206-5bb8-4c57-816e-963e78e922a9","global_id":1089475270,"AdmArea":"Северо-Западный административный округ","District":"район Строгино","Location":"парковая зона АНО ЦРФК «ТЕРРИТОРИЯ СПОРТА»","RegistrationNumber":"77-0270","State":"аттракцион зарегистрирован","LocationType":"парк","geoData":{"coordinates":[37.4178256168968,55.8033615811624],"type":"Point"},"geodata_center":{"type":"geometry","value":"01010000005500504F7BB5424049FA628DD4E64B40"}},{"ID":1113,"Name":"КОМБИНИРОВАННАЯ ЗИМНЯЯ ГОРКА","Photo":"f13714bb-ff0f-4c3e-978d-dbcb7d58d729","global_id":1089475369,"AdmArea":"Южный административный округ","District":"район Бирюлёво Восточное","Location":"Бирюлевский дендропарк","RegistrationNumber":"77-0271","State":"аттракцион зарегистрирован","LocationType":"парк","geoData":{"coordinates":[37.6786091508836,55.5935355292202],"type":"Point"},"geodata_center":{"type":"geometry","value":"0101000000DCE726AADCD64240E881E3F8F8CB4B40"}},{"ID":1114,"Name":"КОМБИНИРОВАННАЯ ЗИМНЯЯ ГОРКА","Photo":"601d82ad-8b98-413a-85ba-065fbcff0f90","global_id":1092181841,"AdmArea":"Восточный административный округ","District":"район Перово","Location":"ПАРК КУЛЬТУРЫ И ОТДЫХА «ПЕРОВСКИЙ»","RegistrationNumber":"77-0280","State":"аттракцион зарегистрирован","LocationType":"парк","geoData":{"coordinates":[37.775325875941,55.7409698216844],"type":"Point"},"geodata_center":{"type":"geometry","value":"01010000006474D8E03DE3424089BA5F19D8DE4B40"}},{"ID":5925,"Name":"Carousel Double Storey 10MEH","Photo":"d67c7d7f-3a36-434e-a625-b1041a81a218","global_id":1092424935,"AdmArea":"Северный административный округ","District":"район Коптево","Location":"Коптевский б-р, д.18","RegistrationNumber":"77-0289","State":"аттракцион зарегистрирован","LocationType":"площадка","geoData":{"coordinates":[37.5252635226481,55.8326497010485],"type":"Point"},"geodata_center":{"type":"geometry","value":"010100000013C7C9D53BC342408283F14394EA4B40"}},{"ID":5926,"Name":"Carousel Double Storey 10MEH","Photo":"01e59d00-43dd-4564-8933-22c115129f80","global_id":1092424949,"AdmArea":"Центральный административный округ","District":"Тверской район","Location":"пл.Революции","RegistrationNumber":"77-0290","State":"аттракцион зарегистрирован","LocationType":"площадка","geoData":{"coordinates":[37.6194123462377,55.7561267315287],"type":"Point"},"geodata_center":{"type":"geometry","value":"010100000032EA5CE748CF424009C6BFC2C8E04B40"}},{"ID":5927,"Name":"Carousel Double Park Model","Photo":"4c344a67-3c2a-458b-b1f8-2329de52ebab","global_id":1092424968,"AdmArea":"Центральный административный округ","District":"Тверской район","Location":"Тверская пл.","RegistrationNumber":"77-0291","State":"аттракцион зарегистрирован","LocationType":"площадка","geoData":{"coordinates":[37.610640442683,55.7618296881766],"type":"Point"},"geodata_center":{"type":"geometry","value":"01010000001A784D7729CE424097EB9DA283E14B40"}},{"ID":5928,"Name":"Автодром","Photo":"f73c98a2-bacb-4a38-a223-a70fb0e12baf","global_id":1092425006,"AdmArea":"Восточный административный округ","District":"район Перово","Location":"Перовский ПКиО","RegistrationNumber":"77-0292","State":"аттракцион зарегистрирован","LocationType":"парк","geoData":{"coordinates":[37.7753551083139,55.7412436629121],"type":"Point"},"geodata_center":{"type":"geometry","value":"0101000000527F10D63EE3424094498512E1DE4B40"}},{"ID":5929,"Name":"АТТРАКЦИОН СЕРИИ 10МЕН ФУТУРИСТИЧЕСКАЯ","Photo":"f0e6c050-244a-4f01-be3c-843de1c672cd","global_id":1102731534,"AdmArea":"Восточный административный округ","District":"район Вешняки","Location":"Вешняковская ул., д.16","RegistrationNumber":"77-2208","State":"аттракцион зарегистрирован","LocationType":"площадка","geoData":{"coordinates":[37.8275684850211,55.7274868093707],"type":"Point"},"geodata_center":{"type":"geometry","value":"0101000000D12E9DC3EDE942406442AB491EDD4B40"}},{"ID":403,"Name":"CONVOY","Photo":"fa7e354f-788d-4ea9-bf60-5bd32600cc80","global_id":1103528648,"AdmArea":"Юго-Западный административный округ","District":"Обручевский район","Location":"ГАУК Г.МОСКВЫ УСАДЬБА ВОРОНЦОВО","RegistrationNumber":"77-2223","State":"аттракцион зарегистрирован","LocationType":"парк","geoData":{"coordinates":[37.5270588490577,55.6679888070904],"type":"Point"},"geodata_center":{"type":"geometry","value":"010100000095E213AA76C34240094640A880D54B40"}},{"ID":5931,"Name":"Tour de Patis","Photo":"8cbc90fa-dd79-402e-bf14-c7f7ff245fd6","global_id":1103636584,"AdmArea":"Западный административный округ","District":"район Крылатское","Location":"ПАРК «SKAZKA»","RegistrationNumber":"77-2228","State":"аттракцион зарегистрирован","LocationType":"парк","geoData":{"coordinates":[37.4339576955065,55.771974819153],"type":"Point"},"geodata_center":{"type":"geometry","value":"01010000002806FFEC8BB742407DCC2412D0E24B40"}},{"ID":1045,"Name":"PIRATE JET 5","Photo":"dffa9671-fcc2-47ef-99a2-62c2725c0fe1","global_id":1104196619,"AdmArea":"Центральный административный округ","District":"Пресненский район","Location":"Московский Зоопарк","RegistrationNumber":"77-2234","State":"аттракцион зарегистрирован","LocationType":"парк","geoData":{"coordinates":[37.5763233959487,55.7615095739768],"type":"Point"},"geodata_center":{"type":"geometry","value":"010100000075C20CF7C4C9424018E94D2579E14B40"}},{"ID":1046,"Name":"CIRCUS TRAIN","Photo":"fe3ff23f-9a23-4afb-9a79-f02c46565769","global_id":1104196820,"AdmArea":"Центральный административный округ","District":"Пресненский район","Location":"Московский Зоопарк","RegistrationNumber":"77-2235","State":"аттракцион зарегистрирован","LocationType":"парк","geoData":{"coordinates":[37.5764371722213,55.761383600843],"type":"Point"},"geodata_center":{"type":"geometry","value":"0101000000D87179B1C8C9424066AA900475E14B40"}},{"ID":1047,"Name":"CIRCUS SWING","Photo":"f0f917ab-9a31-4f38-bc89-7125b6a335d5","global_id":1104196875,"AdmArea":"Центральный административный округ","District":"Пресненский район","Location":"Московский Зоопарк","RegistrationNumber":"77-2236","State":"аттракцион зарегистрирован","LocationType":"парк","geoData":{"coordinates":[37.5762996896308,55.7615343673653],"type":"Point"},"geodata_center":{"type":"geometry","value":"010100000067D42F30C4C94240914E49F579E14B40"}},{"ID":1048,"Name":"Надувной батут ББ.3001","Photo":"5092b516-c71e-40d4-98d7-10eada74fed1","global_id":1104196931,"AdmArea":"Центральный административный округ","District":"Пресненский район","Location":"Московский зоопарк","RegistrationNumber":"77-2237","State":"аттракцион зарегистрирован","LocationType":"парк","geoData":{"coordinates":[37.5762335463498,55.7617239316913],"type":"Point"},"geodata_center":{"type":"geometry","value":"010100000017375605C2C94240EA98772B80E14B40"}},{"ID":5932,"Name":"Летающая машинка две волны","Photo":"30c1f9b1-4382-4310-859c-8f38dc07d078","global_id":1104290271,"AdmArea":"Северо-Восточный административный округ","District":"Лосиноостровский район","Location":"ПКиО Бабушкинский","RegistrationNumber":"77-2239","State":"аттракцион зарегистрирован","LocationType":"парк","geoData":{"coordinates":[37.6818058389139,55.8673378026842],"type":"Point"},"geodata_center":{"type":"geometry","value":"0101000000B32DEA6945D74240778ED4EC04EF4B40"}},{"ID":6001,"Name":"BOUNCE SPIN","Photo":"45088221-ec9a-4ac2-affd-b49e1c32b580","global_id":1110708673,"AdmArea":"Западный административный округ","District":"район Крылатское","Location":"ПАРК «SKAZKA»","RegistrationNumber":"77-2242","State":"аттракцион зарегистрирован","LocationType":"парк","geoData":{"coordinates":[37.4337980507473,55.7715360849086],"type":"Point"},"geodata_center":{"type":"geometry","value":"01010000009883CCB186B74240E02EC6B1C1E24B40"}},{"ID":6002,"Name":"MINI TOP SPIN","Photo":"b89acd72-e921-46f6-ae3c-c98d2f23110b","global_id":1110708906,"AdmArea":"Западный административный округ","District":"район Крылатское","Location":"ПАРК «SKAZKA»","RegistrationNumber":"77-2241","State":"аттракцион зарегистрирован","LocationType":"парк","geoData":{"coordinates":[37.433940621449,55.771532813067],"type":"Point"},"geodata_center":{"type":"geometry","value":"0101000000BCC3C45D8BB74240F8F45396C1E24B40"}},{"ID":6003,"Name":"WORLD TRIP","Photo":"251a493e-f5e7-4260-90e5-fad22d0083d6","global_id":1110708945,"AdmArea":"Западный административный округ","District":"район Крылатское","Location":"ПАРК «SKAZKA»","RegistrationNumber":"77-2240","State":"аттракцион зарегистрирован","LocationType":"парк","geoData":{"coordinates":[37.4336789625808,55.7717034438669],"type":"Point"},"geodata_center":{"type":"geometry","value":"0101000000BB9FD0CA82B7424035CFAE2DC7E24B40"}}]